[
  {
    "name": "York Lanes Dental Office",
    "website": "https://www.yorkusmiles.ca",
    "email": "",
    "phone": "+1-416-736-5038",
    "address": "80 York Boulevard",
    "city": "Vaughan",
    "province": "ON",
    "qualityScore": 3,
    "source": "overpass",
    "osmType": "node",
    "osmId": 1111980676,
    "lat": 43.7741807,
    "lon": -79.5018168,
    "foundAt": "2026-04-07T00:10:21.377Z",
    "query": "dentist Vaughan ON"
  },
  {
    "name": "Sherman Orthodontics",
    "website": "https://shermanorthodontics.ca",
    "email": "",
    "phone": "+1-905-886-8262",
    "address": "31 Disera Drive",
    "city": "Vaughan",
    "province": "ON",
    "qualityScore": 3,
    "source": "overpass",
    "osmType": "node",
    "osmId": 2650968626,
    "lat": 43.8119561,
    "lon": -79.4535878,
    "foundAt": "2026-04-07T00:10:21.379Z",
    "query": "dentist Vaughan ON"
  },
  {
    "name": "Westmount Dental",
    "website": "https://wmdental.ca",
    "email": "info@wmdental.ca",
    "phone": "+1 905-881-8284",
    "address": "8010 Bathurst Street",
    "city": "Vaughan",
    "province": "ON",
    "qualityScore": 4,
    "source": "overpass",
    "osmType": "node",
    "osmId": 2799014901,
    "lat": 43.8167486,
    "lon": -79.4523394,
    "foundAt": "2026-04-07T00:10:21.379Z",
    "query": "dentist Vaughan ON"
  },
  {
    "name": "Marketplace Dentistry",
    "website": "https://marketplacedentistry.ca",
    "email": "",
    "phone": "+1 9053036080",
    "address": "9360 Bathurst Street",
    "city": "Vaughan",
    "province": "ON",
    "qualityScore": 3,
    "source": "overpass",
    "osmType": "node",
    "osmId": 2997099196,
    "lat": 43.8496525,
    "lon": -79.4601097,
    "foundAt": "2026-04-07T00:10:21.379Z",
    "query": "dentist Vaughan ON"
  },
  {
    "name": "Dr. David Bernstein & Associates Family Dentist",
    "website": "http://www.doctorbernstein.ca",
    "email": "",
    "phone": "+1-416-226-5557",
    "address": "",
    "city": "Vaughan",
    "province": "ON",
    "qualityScore": 2,
    "source": "overpass",
    "osmType": "node",
    "osmId": 3783093757,
    "lat": 43.759132,
    "lon": -79.4228716,
    "foundAt": "2026-04-07T00:10:21.379Z",
    "query": "dentist Vaughan ON"
  },
  {
    "name": "Milano Dentistry",
    "website": "https://milanidentistry.ca",
    "email": "",
    "phone": "+1-905-856-9966",
    "address": "",
    "city": "Vaughan",
    "province": "ON",
    "qualityScore": 2,
    "source": "overpass",
    "osmType": "node",
    "osmId": 3905865007,
    "lat": 43.7850677,
    "lon": -79.6258529,
    "foundAt": "2026-04-07T00:10:21.379Z",
    "query": "dentist Vaughan ON"
  },
  {
    "name": "Sunny Day Dental",
    "website": "https://www.sunnydaydental.com",
    "email": "",
    "phone": "+1-905-605-5020",
    "address": "",
    "city": "Vaughan",
    "province": "ON",
    "qualityScore": 2,
    "source": "overpass",
    "osmType": "node",
    "osmId": 3905865025,
    "lat": 43.7856152,
    "lon": -79.6252339,
    "foundAt": "2026-04-07T00:10:21.379Z",
    "query": "dentist Vaughan ON"
  },
  {
    "name": "Cottrelle Dentistry",
    "website": "https://www.drbhandal.com",
    "email": "",
    "phone": "+1-905-789-9911",
    "address": "",
    "city": "Vaughan",
    "province": "ON",
    "qualityScore": 2,
    "source": "overpass",
    "osmType": "node",
    "osmId": 3908804471,
    "lat": 43.7839479,
    "lon": -79.6593357,
    "foundAt": "2026-04-07T00:10:21.379Z",
    "query": "dentist Vaughan ON"
  },
  {
    "name": "Kingsley Dental",
    "website": "https://kingsleydental.ca",
    "email": "",
    "phone": "+1-905-558-3300",
    "address": "",
    "city": "Vaughan",
    "province": "ON",
    "qualityScore": 2,
    "source": "overpass",
    "osmType": "node",
    "osmId": 3982957803,
    "lat": 43.9080168,
    "lon": -79.6533688,
    "foundAt": "2026-04-07T00:10:21.379Z",
    "query": "dentist Vaughan ON"
  },
  {
    "name": "Dental 2 Square",
    "website": "https://www.dental2.ca",
    "email": "",
    "phone": "+1-905-915-8988",
    "address": "",
    "city": "Vaughan",
    "province": "ON",
    "qualityScore": 2,
    "source": "overpass",
    "osmType": "node",
    "osmId": 4529456820,
    "lat": 43.7750002,
    "lon": -79.6535566,
    "foundAt": "2026-04-07T00:10:21.379Z",
    "query": "dentist Vaughan ON"
  },
  {
    "name": "Summeridge Dental Care",
    "website": "https://summeridgedental.com",
    "email": "",
    "phone": "+1 9057718888",
    "address": "8707 Dufferin Street",
    "city": "Vaughan",
    "province": "ON",
    "qualityScore": 3,
    "source": "overpass",
    "osmType": "node",
    "osmId": 7120469965,
    "lat": 43.8295034,
    "lon": -79.4784621,
    "foundAt": "2026-04-07T00:10:21.379Z",
    "query": "dentist Vaughan ON"
  },
  {
    "name": "Royal Dental Hygiene Centre",
    "website": "https://www.royaldhc.com",
    "email": "",
    "phone": "",
    "address": "9505 Keele Street",
    "city": "Vaughan",
    "province": "ON",
    "qualityScore": 2,
    "source": "overpass",
    "osmType": "node",
    "osmId": 7289847064,
    "lat": 43.8416862,
    "lon": -79.5086278,
    "foundAt": "2026-04-07T00:10:21.380Z",
    "query": "dentist Vaughan ON"
  },
  {
    "name": "Cosmetic & Family Dentist",
    "website": "https://kmdental.com",
    "email": "",
    "phone": "",
    "address": "9901 Keele Street",
    "city": "Vaughan",
    "province": "ON",
    "qualityScore": 2,
    "source": "overpass",
    "osmType": "node",
    "osmId": 7289847068,
    "lat": 43.8525385,
    "lon": -79.511588,
    "foundAt": "2026-04-07T00:10:21.380Z",
    "query": "dentist Vaughan ON"
  },
  {
    "name": "RVDental",
    "website": "https://www.rvdental.ca",
    "email": "",
    "phone": "+1-289-857-9524",
    "address": "9200 Bathurst Street",
    "city": "Vaughan",
    "province": "ON",
    "qualityScore": 3,
    "source": "overpass",
    "osmType": "node",
    "osmId": 8450477854,
    "lat": 43.8463362,
    "lon": -79.4601752,
    "foundAt": "2026-04-07T00:10:21.380Z",
    "query": "dentist Vaughan ON"
  },
  {
    "name": "Village Orthodontics",
    "website": "https://www.villageortho.ca",
    "email": "",
    "phone": "+1-289-857-9523",
    "address": "9200 Bathurst Street",
    "city": "Vaughan",
    "province": "ON",
    "qualityScore": 3,
    "source": "overpass",
    "osmType": "node",
    "osmId": 8450477856,
    "lat": 43.8462718,
    "lon": -79.4601444,
    "foundAt": "2026-04-07T00:10:21.380Z",
    "query": "dentist Vaughan ON"
  },
  {
    "name": "Thornhill Woods Family Dentistry",
    "website": "https://www.thornhillwoodsdentistry.com",
    "email": "",
    "phone": "+1 9058825100",
    "address": "8700 Bathurst Street",
    "city": "Vaughan",
    "province": "ON",
    "qualityScore": 3,
    "source": "overpass",
    "osmType": "node",
    "osmId": 8455582389,
    "lat": 43.8344688,
    "lon": -79.4564081,
    "foundAt": "2026-04-07T00:10:21.380Z",
    "query": "dentist Vaughan ON"
  },
  {
    "name": "Autumn Hill Dental",
    "website": "https://autumnhilldental.com",
    "email": "staff@autumnhilldental.com",
    "phone": "+1 9058893939",
    "address": "9001 Dufferin Street",
    "city": "Vaughan",
    "province": "ON",
    "qualityScore": 4,
    "source": "overpass",
    "osmType": "node",
    "osmId": 8729150911,
    "lat": 43.8363256,
    "lon": -79.4803371,
    "foundAt": "2026-04-07T00:10:21.380Z",
    "query": "dentist Vaughan ON"
  },
  {
    "name": "Impressions Dental",
    "website": "https://www.impressionsdental.ca",
    "email": "",
    "phone": "",
    "address": "9306 Bathurst Street",
    "city": "Vaughan",
    "province": "ON",
    "qualityScore": 2,
    "source": "overpass",
    "osmType": "node",
    "osmId": 8776885239,
    "lat": 43.8480647,
    "lon": -79.461305,
    "foundAt": "2026-04-07T00:10:21.380Z",
    "query": "dentist Vaughan ON"
  },
  {
    "name": "Maple Ridge Dentistry",
    "website": "https://www.mapleridgedentistry.ca",
    "email": "",
    "phone": "",
    "address": "10175 Keele Street",
    "city": "Vaughan",
    "province": "ON",
    "qualityScore": 2,
    "source": "overpass",
    "osmType": "node",
    "osmId": 8826426381,
    "lat": 43.8585176,
    "lon": -79.5129167,
    "foundAt": "2026-04-07T00:10:21.380Z",
    "query": "dentist Vaughan ON"
  },
  {
    "name": "TMJ & Sleep Dentistry",
    "website": "https://www.tmjsleepdental.com",
    "email": "",
    "phone": "+1 9054176888",
    "address": "",
    "city": "Vaughan",
    "province": "ON",
    "qualityScore": 2,
    "source": "overpass",
    "osmType": "node",
    "osmId": 10087972905,
    "lat": 43.8370983,
    "lon": -79.533488,
    "foundAt": "2026-04-07T00:10:21.380Z",
    "query": "dentist Vaughan ON"
  },
  {
    "name": "Denture Clinic",
    "website": "https://www.vcdc.ca",
    "email": "",
    "phone": "+1 9054175911",
    "address": "9411 Jane Street",
    "city": "Vaughan",
    "province": "ON",
    "qualityScore": 3,
    "source": "overpass",
    "osmType": "node",
    "osmId": 10087972906,
    "lat": 43.8368654,
    "lon": -79.533431,
    "foundAt": "2026-04-07T00:10:21.380Z",
    "query": "dentist Vaughan ON"
  },
  {
    "name": "Bathurst-Steeles Dental",
    "website": "https://www.bathurst-steelesdental.com",
    "email": "",
    "phone": "",
    "address": "800 Steeles Avenue West",
    "city": "Vaughan",
    "province": "ON",
    "qualityScore": 2,
    "source": "overpass",
    "osmType": "node",
    "osmId": 10634077820,
    "lat": 43.7924924,
    "lon": -79.448395,
    "foundAt": "2026-04-07T00:10:21.380Z",
    "query": "dentist Vaughan ON"
  },
  {
    "name": "Simona Dental Studio",
    "website": "https://www.simonadentalstudio.com",
    "email": "",
    "phone": "+1 905-857-3434",
    "address": "22 Simona Drive",
    "city": "Vaughan",
    "province": "ON",
    "qualityScore": 3,
    "source": "overpass",
    "osmType": "node",
    "osmId": 10777146965,
    "lat": 43.8544615,
    "lon": -79.7065076,
    "foundAt": "2026-04-07T00:10:21.380Z",
    "query": "dentist Vaughan ON"
  },
  {
    "name": "The Tooth Place - Dentist in Bolton",
    "website": "https://www.thetoothplace.ca",
    "email": "",
    "phone": "+1 905-857-1791",
    "address": "12295 Highway 50",
    "city": "Vaughan",
    "province": "ON",
    "qualityScore": 3,
    "source": "overpass",
    "osmType": "node",
    "osmId": 11207083396,
    "lat": 43.8544506,
    "lon": -79.7023136,
    "foundAt": "2026-04-07T00:10:21.380Z",
    "query": "dentist Vaughan ON"
  },
  {
    "name": "DH Smile Center",
    "website": "https://dhsmilecenter.com",
    "email": "",
    "phone": "",
    "address": "7900 Bathurst Street",
    "city": "Vaughan",
    "province": "ON",
    "qualityScore": 2,
    "source": "overpass",
    "osmType": "node",
    "osmId": 12240546802,
    "lat": 43.8143819,
    "lon": -79.4514147,
    "foundAt": "2026-04-07T00:10:21.380Z",
    "query": "dentist Vaughan ON"
  },
  {
    "name": "Green Apple Dentistry",
    "website": "https://greenappledentistry.ca",
    "email": "",
    "phone": "+1 9058939227",
    "address": "",
    "city": "Vaughan",
    "province": "ON",
    "qualityScore": 2,
    "source": "overpass",
    "osmType": "node",
    "osmId": 12434074714,
    "lat": 43.8440674,
    "lon": -79.633142,
    "foundAt": "2026-04-07T00:10:21.380Z",
    "query": "dentist Vaughan ON"
  },
  {
    "name": "Viva Dental Care",
    "website": "https://vivadentalcare.com",
    "email": "",
    "phone": "+1 9055977750",
    "address": "8900 Yonge Street",
    "city": "Vaughan",
    "province": "ON",
    "qualityScore": 3,
    "source": "overpass",
    "osmType": "node",
    "osmId": 12863052834,
    "lat": 43.8445333,
    "lon": -79.4315222,
    "foundAt": "2026-04-07T00:10:21.380Z",
    "query": "dentist Vaughan ON"
  },
  {
    "name": "Inspire Dental Studio",
    "website": "https://inspiredentalstudio.ca",
    "email": "",
    "phone": "+1 9058503443",
    "address": "",
    "city": "Vaughan",
    "province": "ON",
    "qualityScore": 2,
    "source": "overpass",
    "osmType": "node",
    "osmId": 12897939001,
    "lat": 43.8468794,
    "lon": -79.5537377,
    "foundAt": "2026-04-07T00:10:21.380Z",
    "query": "dentist Vaughan ON"
  },
  {
    "name": "Smiles on Yonge Orthodontics",
    "website": "https://www.smilesonyonge.ca",
    "email": "",
    "phone": "+1 9055376453",
    "address": "",
    "city": "Vaughan",
    "province": "ON",
    "qualityScore": 2,
    "source": "overpass",
    "osmType": "node",
    "osmId": 12941605149,
    "lat": 43.84447,
    "lon": -79.4315055,
    "foundAt": "2026-04-07T00:10:21.380Z",
    "query": "dentist Vaughan ON"
  },
  {
    "name": "Treehouse Dental Care",
    "website": "https://www.treehousedentalcare.ca",
    "email": "",
    "phone": "+1 905-882-9888",
    "address": "1 Promenade Circle",
    "city": "Vaughan",
    "province": "ON",
    "qualityScore": 3,
    "source": "overpass",
    "osmType": "node",
    "osmId": 13009327601,
    "lat": 43.8074673,
    "lon": -79.451981,
    "foundAt": "2026-04-07T00:10:21.380Z",
    "query": "dentist Vaughan ON"
  },
  {
    "name": "Seoul Dental",
    "website": "http://seouldental.ca",
    "email": "",
    "phone": "+1 437 299-7654",
    "address": "611-7191 Yonge Street",
    "city": "Vaughan",
    "province": "ON",
    "qualityScore": 3,
    "source": "overpass",
    "osmType": "node",
    "osmId": 13574857601,
    "lat": 43.8033487,
    "lon": -79.420859,
    "foundAt": "2026-04-07T00:10:21.380Z",
    "query": "dentist Vaughan ON"
  },
  {
    "name": "Altima Dental",
    "website": "https://www.altimadental.com",
    "email": "",
    "phone": "+1 416-535-1167",
    "address": "",
    "city": "Toronto",
    "province": "ON",
    "qualityScore": 2,
    "source": "overpass",
    "osmType": "node",
    "osmId": 339423484,
    "lat": 43.6652962,
    "lon": -79.4097225,
    "foundAt": "2026-04-07T00:10:55.842Z",
    "query": "dentist Toronto ON"
  },
  {
    "name": "Dr. Lily Lo",
    "website": "https://www.smilestoronto.com",
    "email": "",
    "phone": "",
    "address": "1200 Lawrence Avenue East",
    "city": "Toronto",
    "province": "ON",
    "qualityScore": 2,
    "source": "overpass",
    "osmType": "node",
    "osmId": 423775536,
    "lat": 43.7263801,
    "lon": -79.312867,
    "foundAt": "2026-04-07T00:10:55.843Z",
    "query": "dentist Toronto ON"
  },
  {
    "name": "Dr. Stephen Kay and Dr. Melvyn Kay",
    "website": "https://www.kaydental.ca",
    "email": "",
    "phone": "",
    "address": "738 Sheppard Avenue East",
    "city": "Toronto",
    "province": "ON",
    "qualityScore": 2,
    "source": "overpass",
    "osmType": "node",
    "osmId": 530275157,
    "lat": 43.7698542,
    "lon": -79.3758754,
    "foundAt": "2026-04-07T00:10:55.843Z",
    "query": "dentist Toronto ON"
  },
  {
    "name": "Christie Park Dental",
    "website": "https://parkdentalcentres.com",
    "email": "",
    "phone": "+1-416-531-5796",
    "address": "745 Bloor Street West",
    "city": "Toronto",
    "province": "ON",
    "qualityScore": 3,
    "source": "overpass",
    "osmType": "node",
    "osmId": 575245004,
    "lat": 43.6632497,
    "lon": -79.4192784,
    "foundAt": "2026-04-07T00:10:55.843Z",
    "query": "dentist Toronto ON"
  },
  {
    "name": "Infinity Dental",
    "website": "http://www.infinitydentaloffice.com",
    "email": "",
    "phone": "+1-416-463-4648",
    "address": "31 Lower Simcoe Street",
    "city": "Toronto",
    "province": "ON",
    "qualityScore": 3,
    "source": "overpass",
    "osmType": "node",
    "osmId": 579307117,
    "lat": 43.6417507,
    "lon": -79.3834059,
    "foundAt": "2026-04-07T00:10:55.843Z",
    "query": "dentist Toronto ON"
  },
  {
    "name": "Toronto Oral & Facial Survery",
    "website": "https://torontooralandfacialsurgery.com",
    "email": "info@torontooralandfacialsurgery.com",
    "phone": "+1 416 322 2111",
    "address": "",
    "city": "Toronto",
    "province": "ON",
    "qualityScore": 3,
    "source": "overpass",
    "osmType": "node",
    "osmId": 583868417,
    "lat": 43.7043766,
    "lon": -79.3887878,
    "foundAt": "2026-04-07T00:10:55.843Z",
    "query": "dentist Toronto ON"
  },
  {
    "name": "Dorset Dental",
    "website": "https://dorsetdental.com",
    "email": "dorsetdental@dorsetdental.com",
    "phone": "+1-416-261-2946",
    "address": "119 Dorset Road",
    "city": "Toronto",
    "province": "ON",
    "qualityScore": 4,
    "source": "overpass",
    "osmType": "node",
    "osmId": 618407559,
    "lat": 43.7242947,
    "lon": -79.2328517,
    "foundAt": "2026-04-07T00:10:55.843Z",
    "query": "dentist Toronto ON"
  },
  {
    "name": "Smile by Design",
    "website": "https://www.smilebydesign.com",
    "email": "",
    "phone": "+1-905-897-1106",
    "address": "3038 Hurontario Street",
    "city": "Toronto",
    "province": "ON",
    "qualityScore": 3,
    "source": "overpass",
    "osmType": "node",
    "osmId": 694308044,
    "lat": 43.581152,
    "lon": -79.6180568,
    "foundAt": "2026-04-07T00:10:55.844Z",
    "query": "dentist Toronto ON"
  },
  {
    "name": "Downtown Dental Centre",
    "website": "https://www.downtowndental.ca",
    "email": "",
    "phone": "+1-416-593-5111",
    "address": "",
    "city": "Toronto",
    "province": "ON",
    "qualityScore": 2,
    "source": "overpass",
    "osmType": "node",
    "osmId": 867478584,
    "lat": 43.6593224,
    "lon": -79.3914904,
    "foundAt": "2026-04-07T00:10:55.844Z",
    "query": "dentist Toronto ON"
  },
  {
    "name": "Arch Dental Centre",
    "website": "https://www.archdental.ca",
    "email": "",
    "phone": "+1-416-598-0100",
    "address": "1010 King Street West",
    "city": "Toronto",
    "province": "ON",
    "qualityScore": 3,
    "source": "overpass",
    "osmType": "node",
    "osmId": 902314168,
    "lat": 43.6416324,
    "lon": -79.4148107,
    "foundAt": "2026-04-07T00:10:55.844Z",
    "query": "dentist Toronto ON"
  },
  {
    "name": "Dr. Anca Jivan",
    "website": "https://www.drajivan.ca",
    "email": "",
    "phone": "+1-416-225-4949",
    "address": "",
    "city": "Toronto",
    "province": "ON",
    "qualityScore": 2,
    "source": "overpass",
    "osmType": "node",
    "osmId": 984718687,
    "lat": 43.7074258,
    "lon": -79.3959482,
    "foundAt": "2026-04-07T00:10:55.844Z",
    "query": "dentist Toronto ON"
  },
  {
    "name": "Dr D. M. Freedman",
    "website": "http://eglintonkennedydental.com",
    "email": "",
    "phone": "+1-416-755-2553",
    "address": "2373 Eglinton Avenue East",
    "city": "Toronto",
    "province": "ON",
    "qualityScore": 3,
    "source": "overpass",
    "osmType": "node",
    "osmId": 1023038817,
    "lat": 43.7313731,
    "lon": -79.2693226,
    "foundAt": "2026-04-07T00:10:55.844Z",
    "query": "dentist Toronto ON"
  },
  {
    "name": "Midtown Dental",
    "website": "https://midtowndental.ca",
    "email": "info@midtowndental.ca",
    "phone": "+1-416-966-3368",
    "address": "20 Bloor Street East",
    "city": "Toronto",
    "province": "ON",
    "qualityScore": 4,
    "source": "overpass",
    "osmType": "node",
    "osmId": 1134195976,
    "lat": 43.6709328,
    "lon": -79.3845937,
    "foundAt": "2026-04-07T00:10:55.844Z",
    "query": "dentist Toronto ON"
  },
  {
    "name": "College Street Dental",
    "website": "https://www.collegestreetdental.ca",
    "email": "info@collegestreetdental.ca",
    "phone": "+1-416-519-5550",
    "address": "261 College Street",
    "city": "Toronto",
    "province": "ON",
    "qualityScore": 4,
    "source": "overpass",
    "osmType": "node",
    "osmId": 1138226286,
    "lat": 43.6578325,
    "lon": -79.3994829,
    "foundAt": "2026-04-07T00:10:55.844Z",
    "query": "dentist Toronto ON"
  },
  {
    "name": "Bayview Village Dental",
    "website": "https://www.bayviewvillagedental.com",
    "email": "mydentist@bayviewvillagedental.com",
    "phone": "+1-416-224-1775",
    "address": "2901 Bayview Ave",
    "city": "Toronto",
    "province": "ON",
    "qualityScore": 4,
    "source": "overpass",
    "osmType": "node",
    "osmId": 1138266284,
    "lat": 43.7687554,
    "lon": -79.3863481,
    "foundAt": "2026-04-07T00:10:55.844Z",
    "query": "dentist Toronto ON"
  },
  {
    "name": "Liberty Village Dental",
    "website": "https://www.libertyvillagedental.com",
    "email": "",
    "phone": "+1-416-533-3323",
    "address": "",
    "city": "Toronto",
    "province": "ON",
    "qualityScore": 2,
    "source": "overpass",
    "osmType": "node",
    "osmId": 1279837733,
    "lat": 43.6392418,
    "lon": -79.4150025,
    "foundAt": "2026-04-07T00:10:55.844Z",
    "query": "dentist Toronto ON"
  },
  {
    "name": "Dr. Carrie Hui, B.H.Sc., D.D.S.",
    "website": "https://www.drcarriehui.com",
    "email": "drcarriehui@gmail.com",
    "phone": "+1-416-598-8816",
    "address": "601 Eglinton Avenue East",
    "city": "Toronto",
    "province": "ON",
    "qualityScore": 4,
    "source": "overpass",
    "osmType": "node",
    "osmId": 1286332668,
    "lat": 43.710801,
    "lon": -79.3775517,
    "foundAt": "2026-04-07T00:10:55.844Z",
    "query": "dentist Toronto ON"
  },
  {
    "name": "Dr. C. Goldberg Dental Office",
    "website": "https://www.drcharlesgoldbergdds.com",
    "email": "",
    "phone": "+1- 416-591-9177",
    "address": "483 Bay Street",
    "city": "Toronto",
    "province": "ON",
    "qualityScore": 3,
    "source": "overpass",
    "osmType": "node",
    "osmId": 1291939242,
    "lat": 43.6533159,
    "lon": -79.3817763,
    "foundAt": "2026-04-07T00:10:55.844Z",
    "query": "dentist Toronto ON"
  },
  {
    "name": "Gelinas Dental Studio",
    "website": "https://gelinasdentalstudio.com",
    "email": "",
    "phone": "+1-416-477-1624",
    "address": "2076 Dundas Street West",
    "city": "Toronto",
    "province": "ON",
    "qualityScore": 3,
    "source": "overpass",
    "osmType": "node",
    "osmId": 1370576773,
    "lat": 43.6522435,
    "lon": -79.4480707,
    "foundAt": "2026-04-07T00:10:55.844Z",
    "query": "dentist Toronto ON"
  },
  {
    "name": "Asadi Lewis and Associates Dentistry",
    "website": "https://asadilewis.com",
    "email": "",
    "phone": "+1-416-441-2273",
    "address": "",
    "city": "Toronto",
    "province": "ON",
    "qualityScore": 2,
    "source": "overpass",
    "osmType": "node",
    "osmId": 1416828661,
    "lat": 43.737288,
    "lon": -79.344288,
    "foundAt": "2026-04-07T00:10:55.844Z",
    "query": "dentist Toronto ON"
  },
  {
    "name": "Lakeshore West Dental",
    "website": "https://www.lakeshorewestdental.com",
    "email": "",
    "phone": "+1-416-251-5707",
    "address": "3390 Lake Shore Boulevard West",
    "city": "Toronto",
    "province": "ON",
    "qualityScore": 3,
    "source": "overpass",
    "osmType": "node",
    "osmId": 1518558871,
    "lat": 43.5960786,
    "lon": -79.5273909,
    "foundAt": "2026-04-07T00:10:55.844Z",
    "query": "dentist Toronto ON"
  },
  {
    "name": "Art of Smile",
    "website": "https://artofsmile.ca",
    "email": "",
    "phone": "+1-416-932-9179",
    "address": "2527 Yonge Street",
    "city": "Toronto",
    "province": "ON",
    "qualityScore": 3,
    "source": "overpass",
    "osmType": "node",
    "osmId": 1839377231,
    "lat": 43.712831,
    "lon": -79.399469,
    "foundAt": "2026-04-07T00:10:55.844Z",
    "query": "dentist Toronto ON"
  },
  {
    "name": "Dr. Bobby Brown & Associates",
    "website": "https://www.drbobbybrown.com",
    "email": "",
    "phone": "+1 9056158700",
    "address": "33 City Centre Drive",
    "city": "Toronto",
    "province": "ON",
    "qualityScore": 3,
    "source": "overpass",
    "osmType": "node",
    "osmId": 1862872466,
    "lat": 43.594641,
    "lon": -79.639266,
    "foundAt": "2026-04-07T00:10:55.844Z",
    "query": "dentist Toronto ON"
  },
  {
    "name": "Lakeview Dental",
    "website": "http://www.lakeview-dental.ca",
    "email": "",
    "phone": "",
    "address": "125 The Queensway",
    "city": "Toronto",
    "province": "ON",
    "qualityScore": 2,
    "source": "overpass",
    "osmType": "node",
    "osmId": 1870666655,
    "lat": 43.6299784,
    "lon": -79.4827025,
    "foundAt": "2026-04-07T00:10:55.844Z",
    "query": "dentist Toronto ON"
  },
  {
    "name": "Fifth Street Dental",
    "website": "https://fifthstdental.com",
    "email": "",
    "phone": "+1-416-251-5757",
    "address": "2860 Lake Shore Boulevard West",
    "city": "Toronto",
    "province": "ON",
    "qualityScore": 3,
    "source": "overpass",
    "osmType": "node",
    "osmId": 1885443850,
    "lat": 43.6014755,
    "lon": -79.502734,
    "foundAt": "2026-04-07T00:10:55.844Z",
    "query": "dentist Toronto ON"
  },
  {
    "name": "Humber Bay Dental Centre",
    "website": "https://humberdental.ca",
    "email": "",
    "phone": "+1-416-255-7524",
    "address": "2436 Lake Shore Boulevard West",
    "city": "Toronto",
    "province": "ON",
    "qualityScore": 3,
    "source": "overpass",
    "osmType": "node",
    "osmId": 1906274216,
    "lat": 43.6142976,
    "lon": -79.4892342,
    "foundAt": "2026-04-07T00:10:55.844Z",
    "query": "dentist Toronto ON"
  },
  {
    "name": "Mason Denture Clinic",
    "website": "http://www.masondentureclinic.com",
    "email": "",
    "phone": "+1-416-251-0559",
    "address": "2892 Lake Shore Boulevard West",
    "city": "Toronto",
    "province": "ON",
    "qualityScore": 3,
    "source": "overpass",
    "osmType": "node",
    "osmId": 1907123259,
    "lat": 43.6012022,
    "lon": -79.503896,
    "foundAt": "2026-04-07T00:10:55.844Z",
    "query": "dentist Toronto ON"
  },
  {
    "name": "Renaissance Dental Prosthetics Ltd.",
    "website": "https://www.renaissancedental.ca",
    "email": "",
    "phone": "+1 4162553888",
    "address": "",
    "city": "Toronto",
    "province": "ON",
    "qualityScore": 2,
    "source": "overpass",
    "osmType": "node",
    "osmId": 1911554889,
    "lat": 43.5969875,
    "lon": -79.5238824,
    "foundAt": "2026-04-07T00:10:55.844Z",
    "query": "dentist Toronto ON"
  },
  {
    "name": "Dr. O.K. Dental Centre",
    "website": "https://www.drok.ca",
    "email": "",
    "phone": "+1-416-848-9790",
    "address": "",
    "city": "Toronto",
    "province": "ON",
    "qualityScore": 2,
    "source": "overpass",
    "osmType": "node",
    "osmId": 1995567907,
    "lat": 43.6213022,
    "lon": -79.5262062,
    "foundAt": "2026-04-07T00:10:55.844Z",
    "query": "dentist Toronto ON"
  },
  {
    "name": "Sheppard Village Dental",
    "website": "https://sheppardvillagedental.com",
    "email": "",
    "phone": "+1-416-293-5155",
    "address": "",
    "city": "Toronto",
    "province": "ON",
    "qualityScore": 2,
    "source": "overpass",
    "osmType": "node",
    "osmId": 2010038894,
    "lat": 43.7894747,
    "lon": -79.2574871,
    "foundAt": "2026-04-07T00:10:55.844Z",
    "query": "dentist Toronto ON"
  },
  {
    "name": "Royal York Dental",
    "website": "https://www.royalyorkdental.ca",
    "email": "",
    "phone": "+1-416-231-0550",
    "address": "3034 Bloor Street West",
    "city": "Toronto",
    "province": "ON",
    "qualityScore": 3,
    "source": "overpass",
    "osmType": "node",
    "osmId": 2021551673,
    "lat": 43.6472657,
    "lon": -79.5124426,
    "foundAt": "2026-04-07T00:10:55.844Z",
    "query": "dentist Toronto ON"
  },
  {
    "name": "Princeview Dental",
    "website": "https://www.princeviewdental.com",
    "email": "",
    "phone": "+1-416-231-4562",
    "address": "3052 Bloor Street West",
    "city": "Toronto",
    "province": "ON",
    "qualityScore": 3,
    "source": "overpass",
    "osmType": "node",
    "osmId": 2021650354,
    "lat": 43.6471343,
    "lon": -79.5130027,
    "foundAt": "2026-04-07T00:10:55.844Z",
    "query": "dentist Toronto ON"
  },
  {
    "name": "Kingsway Dental Centre",
    "website": "https://kingswaydentalcentre.ca",
    "email": "",
    "phone": "+1-416-233-0016",
    "address": "3064 Bloor Street West",
    "city": "Toronto",
    "province": "ON",
    "qualityScore": 3,
    "source": "overpass",
    "osmType": "node",
    "osmId": 2021650357,
    "lat": 43.6470381,
    "lon": -79.5134465,
    "foundAt": "2026-04-07T00:10:55.844Z",
    "query": "dentist Toronto ON"
  },
  {
    "name": "Museum Dental",
    "website": "http://www.museumdental.ca",
    "email": "",
    "phone": "+1-416-922-6848",
    "address": "206 Bloor Street West",
    "city": "Toronto",
    "province": "ON",
    "qualityScore": 3,
    "source": "overpass",
    "osmType": "node",
    "osmId": 2039121572,
    "lat": 43.6685357,
    "lon": -79.3957011,
    "foundAt": "2026-04-07T00:10:55.844Z",
    "query": "dentist Toronto ON"
  },
  {
    "name": "Yonge Eglinton Dental",
    "website": "https://www.yongeeglintondental.com",
    "email": "dentist@yongeeglintondental.com",
    "phone": "+1-416-932-2222",
    "address": "2345 Yonge Street",
    "city": "Toronto",
    "province": "ON",
    "qualityScore": 4,
    "source": "overpass",
    "osmType": "node",
    "osmId": 2060863865,
    "lat": 43.708823,
    "lon": -79.3982801,
    "foundAt": "2026-04-07T00:10:55.844Z",
    "query": "dentist Toronto ON"
  },
  {
    "name": "Applewood Village Dentisrty",
    "website": "https://www.applewoodvillagedentistry.ca",
    "email": "",
    "phone": "+1-905-279-1818",
    "address": "10-1077 North Service Road",
    "city": "Toronto",
    "province": "ON",
    "qualityScore": 3,
    "source": "overpass",
    "osmType": "node",
    "osmId": 2237823264,
    "lat": 43.5916065,
    "lon": -79.5762568,
    "foundAt": "2026-04-07T00:10:55.844Z",
    "query": "dentist Toronto ON"
  },
  {
    "name": "Your Dental Office",
    "website": "https://ydo.one",
    "email": "",
    "phone": "+1 416-588-2880",
    "address": "1196 Bloor Street West",
    "city": "Toronto",
    "province": "ON",
    "qualityScore": 3,
    "source": "overpass",
    "osmType": "node",
    "osmId": 2286832913,
    "lat": 43.6594126,
    "lon": -79.4380601,
    "foundAt": "2026-04-07T00:10:55.844Z",
    "query": "dentist Toronto ON"
  },
  {
    "name": "High Park Dental Care",
    "website": "https://www.highparkdentalcare.com",
    "email": "",
    "phone": "+1-416-766-6383",
    "address": "2184A Bloor Street West",
    "city": "Toronto",
    "province": "ON",
    "qualityScore": 3,
    "source": "overpass",
    "osmType": "node",
    "osmId": 2288216737,
    "lat": 43.6516516,
    "lon": -79.4745939,
    "foundAt": "2026-04-07T00:10:55.844Z",
    "query": "dentist Toronto ON"
  },
  {
    "name": "Bloorwest Dental",
    "website": "https://bloorwestdental.ca",
    "email": "",
    "phone": "+1-647-352-7446",
    "address": "2475 Bloor Street West",
    "city": "Toronto",
    "province": "ON",
    "qualityScore": 3,
    "source": "overpass",
    "osmType": "node",
    "osmId": 2288606552,
    "lat": 43.6488013,
    "lon": -79.4849262,
    "foundAt": "2026-04-07T00:10:55.844Z",
    "query": "dentist Toronto ON"
  },
  {
    "name": "Bloor Street Dental Arts",
    "website": "https://bloorstreetdentalarts.com",
    "email": "admin@bloordentalarts.com",
    "phone": "+1-416-604-8008",
    "address": "2338 Bloor Street West",
    "city": "Toronto",
    "province": "ON",
    "qualityScore": 4,
    "source": "overpass",
    "osmType": "node",
    "osmId": 2405807606,
    "lat": 43.6502951,
    "lon": -79.4808351,
    "foundAt": "2026-04-07T00:10:55.844Z",
    "query": "dentist Toronto ON"
  },
  {
    "name": "Zigan Dental Group",
    "website": "https://www.zigandentalgroup.com",
    "email": "",
    "phone": "+1-416-769-4220",
    "address": "2382 Bloor Street West",
    "city": "Toronto",
    "province": "ON",
    "qualityScore": 3,
    "source": "overpass",
    "osmType": "node",
    "osmId": 2405823213,
    "lat": 43.6499605,
    "lon": -79.4823495,
    "foundAt": "2026-04-07T00:10:55.844Z",
    "query": "dentist Toronto ON"
  },
  {
    "name": "Bloor West Dentistry",
    "website": "https://www.bloorwestdentistry.ca",
    "email": "info@bloorwestdentistry.ca;",
    "phone": "+1-416-763-1283",
    "address": "2420 Bloor Street West",
    "city": "Toronto",
    "province": "ON",
    "qualityScore": 4,
    "source": "overpass",
    "osmType": "node",
    "osmId": 2405832062,
    "lat": 43.6496698,
    "lon": -79.483661,
    "foundAt": "2026-04-07T00:10:55.845Z",
    "query": "dentist Toronto ON"
  },
  {
    "name": "Queensway Dental",
    "website": "https://queenswaydental.net",
    "email": "",
    "phone": "+1 416-251-5334",
    "address": "1024 The Queensway",
    "city": "Toronto",
    "province": "ON",
    "qualityScore": 3,
    "source": "overpass",
    "osmType": "node",
    "osmId": 2427505121,
    "lat": 43.623616,
    "lon": -79.5158275,
    "foundAt": "2026-04-07T00:10:55.845Z",
    "query": "dentist Toronto ON"
  },
  {
    "name": "Yonge Dental Care",
    "website": "https://www.yongedentalcare.com",
    "email": "",
    "phone": "+1-416-512-7500",
    "address": "",
    "city": "Toronto",
    "province": "ON",
    "qualityScore": 2,
    "source": "overpass",
    "osmType": "node",
    "osmId": 2449563363,
    "lat": 43.7645939,
    "lon": -79.4122353,
    "foundAt": "2026-04-07T00:10:55.845Z",
    "query": "dentist Toronto ON"
  },
  {
    "name": "DentalVille",
    "website": "https://www.dentalville.ca",
    "email": "",
    "phone": "+1-416-255-0555",
    "address": "",
    "city": "Toronto",
    "province": "ON",
    "qualityScore": 2,
    "source": "overpass",
    "osmType": "node",
    "osmId": 2470509482,
    "lat": 43.609714,
    "lon": -79.5472857,
    "foundAt": "2026-04-07T00:10:55.845Z",
    "query": "dentist Toronto ON"
  },
  {
    "name": "Laird Dental Associates",
    "website": "https://www.lairddental.com",
    "email": "",
    "phone": "+1-416-388-6070",
    "address": "62 Laird Drive",
    "city": "Toronto",
    "province": "ON",
    "qualityScore": 3,
    "source": "overpass",
    "osmType": "node",
    "osmId": 2633862436,
    "lat": 43.7046079,
    "lon": -79.3613893,
    "foundAt": "2026-04-07T00:10:55.845Z",
    "query": "dentist Toronto ON"
  },
  {
    "name": "Laird Orthodontics",
    "website": "https://www.lairdorthodontics.com",
    "email": "",
    "phone": "+1-416-662-2555",
    "address": "62 Laird Drive",
    "city": "Toronto",
    "province": "ON",
    "qualityScore": 3,
    "source": "overpass",
    "osmType": "node",
    "osmId": 2633862438,
    "lat": 43.7046582,
    "lon": -79.3614035,
    "foundAt": "2026-04-07T00:10:55.845Z",
    "query": "dentist Toronto ON"
  },
  {
    "name": "Monarch Dentistry",
    "website": "https://monarchdentistry.ca",
    "email": "",
    "phone": "+1-416-901-8822",
    "address": "",
    "city": "Toronto",
    "province": "ON",
    "qualityScore": 2,
    "source": "overpass",
    "osmType": "node",
    "osmId": 2764622666,
    "lat": 43.6494669,
    "lon": -79.3659006,
    "foundAt": "2026-04-07T00:10:55.845Z",
    "query": "dentist Toronto ON"
  },
  {
    "name": "Bathurst Smiles Dental",
    "website": "http://www.bathurstdental.com",
    "email": "",
    "phone": "+1-416-532-9373",
    "address": "",
    "city": "Toronto",
    "province": "ON",
    "qualityScore": 2,
    "source": "overpass",
    "osmType": "node",
    "osmId": 2796336510,
    "lat": 43.6656608,
    "lon": -79.4116218,
    "foundAt": "2026-04-07T00:10:55.845Z",
    "query": "dentist Toronto ON"
  },
  {
    "name": "BAL Dental Centre",
    "website": "https://www.baldentalcentre.com",
    "email": "",
    "phone": "+1-416-285-4545",
    "address": "",
    "city": "Toronto",
    "province": "ON",
    "qualityScore": 2,
    "source": "overpass",
    "osmType": "node",
    "osmId": 2926842101,
    "lat": 43.7281645,
    "lon": -79.2890209,
    "foundAt": "2026-04-07T00:10:55.845Z",
    "query": "dentist Toronto ON"
  },
  {
    "name": "Pacific Dental",
    "website": "https://pacificdentalonbloor.com",
    "email": "",
    "phone": "+1-416-762-9706",
    "address": "6 Pacific Avenue",
    "city": "Toronto",
    "province": "ON",
    "qualityScore": 3,
    "source": "overpass",
    "osmType": "node",
    "osmId": 3355228207,
    "lat": 43.6541222,
    "lon": -79.4639408,
    "foundAt": "2026-04-07T00:10:55.845Z",
    "query": "dentist Toronto ON"
  },
  {
    "name": "KM Dental Group",
    "website": "https://kmdentalgroup.com",
    "email": "",
    "phone": "+1 416-255-9901",
    "address": "703 The Queensway",
    "city": "Toronto",
    "province": "ON",
    "qualityScore": 3,
    "source": "overpass",
    "osmType": "node",
    "osmId": 3411753143,
    "lat": 43.6265518,
    "lon": -79.5010278,
    "foundAt": "2026-04-07T00:10:55.845Z",
    "query": "dentist Toronto ON"
  },
  {
    "name": "soho Dental",
    "website": "https://sohodental.ca",
    "email": "",
    "phone": "+1-416-340-7644",
    "address": "",
    "city": "Toronto",
    "province": "ON",
    "qualityScore": 2,
    "source": "overpass",
    "osmType": "node",
    "osmId": 3418912093,
    "lat": 43.647995,
    "lon": -79.3957339,
    "foundAt": "2026-04-07T00:10:55.845Z",
    "query": "dentist Toronto ON"
  },
  {
    "name": "Fort York Dentist",
    "website": "https://www.fortyorkdentist.com",
    "email": "",
    "phone": "",
    "address": "219 Fort York Boulevard",
    "city": "Toronto",
    "province": "ON",
    "qualityScore": 2,
    "source": "overpass",
    "osmType": "node",
    "osmId": 3427252955,
    "lat": 43.6364478,
    "lon": -79.4056559,
    "foundAt": "2026-04-07T00:10:55.845Z",
    "query": "dentist Toronto ON"
  },
  {
    "name": "Dr. V Janev",
    "website": "https://www.mississaugadentist.ca",
    "email": "",
    "phone": "+1-905-848-3434",
    "address": "",
    "city": "Toronto",
    "province": "ON",
    "qualityScore": 2,
    "source": "overpass",
    "osmType": "node",
    "osmId": 3465528889,
    "lat": 43.6141655,
    "lon": -79.6110638,
    "foundAt": "2026-04-07T00:10:55.845Z",
    "query": "dentist Toronto ON"
  },
  {
    "name": "Queen's Quay Dental Centre",
    "website": "https://www.qqdental.ca",
    "email": "",
    "phone": "",
    "address": "482 Queens Quay West",
    "city": "Toronto",
    "province": "ON",
    "qualityScore": 2,
    "source": "overpass",
    "osmType": "node",
    "osmId": 3474264111,
    "lat": 43.6375443,
    "lon": -79.3941742,
    "foundAt": "2026-04-07T00:10:55.845Z",
    "query": "dentist Toronto ON"
  },
  {
    "name": "Mystic Pointe Dental",
    "website": "https://www.mysticpointedental.com",
    "email": "",
    "phone": "+1-416-255-9995",
    "address": "270 Manitoba Street",
    "city": "Toronto",
    "province": "ON",
    "qualityScore": 3,
    "source": "overpass",
    "osmType": "node",
    "osmId": 3494914028,
    "lat": 43.6241643,
    "lon": -79.4896823,
    "foundAt": "2026-04-07T00:10:55.845Z",
    "query": "dentist Toronto ON"
  },
  {
    "name": "Lakeside Dentists",
    "website": "http://www.lakesidedentists.com",
    "email": "",
    "phone": "+1-416-255-1566",
    "address": "",
    "city": "Toronto",
    "province": "ON",
    "qualityScore": 2,
    "source": "overpass",
    "osmType": "node",
    "osmId": 3605437860,
    "lat": 43.6143679,
    "lon": -79.4886977,
    "foundAt": "2026-04-07T00:10:55.845Z",
    "query": "dentist Toronto ON"
  },
  {
    "name": "Corktown Dental Centre",
    "website": "https://www.corktowndental.com",
    "email": "",
    "phone": "+1-416-363-5353",
    "address": "",
    "city": "Toronto",
    "province": "ON",
    "qualityScore": 2,
    "source": "overpass",
    "osmType": "node",
    "osmId": 3611609912,
    "lat": 43.6507643,
    "lon": -79.3669195,
    "foundAt": "2026-04-07T00:10:55.845Z",
    "query": "dentist Toronto ON"
  },
  {
    "name": "Dentistry on Queen West",
    "website": "https://dentistryonqueenwest.ca",
    "email": "",
    "phone": "+1-647-350-1156",
    "address": "1157 Queen Street West",
    "city": "Toronto",
    "province": "ON",
    "qualityScore": 3,
    "source": "overpass",
    "osmType": "node",
    "osmId": 3624207194,
    "lat": 43.6427327,
    "lon": -79.4253097,
    "foundAt": "2026-04-07T00:10:55.845Z",
    "query": "dentist Toronto ON"
  },
  {
    "name": "One Marine Dental",
    "website": "https://onemarinedental.ca",
    "email": "",
    "phone": "+1-647-951-8888",
    "address": "",
    "city": "Toronto",
    "province": "ON",
    "qualityScore": 2,
    "source": "overpass",
    "osmType": "node",
    "osmId": 3672015338,
    "lat": 43.6302206,
    "lon": -79.4763248,
    "foundAt": "2026-04-07T00:10:55.845Z",
    "query": "dentist Toronto ON"
  },
  {
    "name": "Market Dental",
    "website": "https://www.marketdentalcentre.ca",
    "email": "",
    "phone": "",
    "address": "149 Lower Jarvis Street",
    "city": "Toronto",
    "province": "ON",
    "qualityScore": 2,
    "source": "overpass",
    "osmType": "node",
    "osmId": 3676393305,
    "lat": 43.6492288,
    "lon": -79.3710811,
    "foundAt": "2026-04-07T00:10:55.845Z",
    "query": "dentist Toronto ON"
  },
  {
    "name": "Annex Dental Clinic",
    "website": "https://www.annexdentalclinic.com",
    "email": "annexdentalclinic@hotmail.com",
    "phone": "+1 416-533-5555",
    "address": "1095 Bathurst Street",
    "city": "Toronto",
    "province": "ON",
    "qualityScore": 4,
    "source": "overpass",
    "osmType": "node",
    "osmId": 3687539995,
    "lat": 43.6730498,
    "lon": -79.414144,
    "foundAt": "2026-04-07T00:10:55.845Z",
    "query": "dentist Toronto ON"
  },
  {
    "name": "Dentistry on Ellesmere",
    "website": "https://www.dentistryonellesmere.com",
    "email": "info@dentistryonellesmere.com",
    "phone": "+1-416-298-1717",
    "address": "",
    "city": "Toronto",
    "province": "ON",
    "qualityScore": 3,
    "source": "overpass",
    "osmType": "node",
    "osmId": 3739751005,
    "lat": 43.765954,
    "lon": -79.2822028,
    "foundAt": "2026-04-07T00:10:55.845Z",
    "query": "dentist Toronto ON"
  },
  {
    "name": "Iona Dental Office",
    "website": "https://ionadental.ca",
    "email": "",
    "phone": "+1-905-277-0038",
    "address": "",
    "city": "Toronto",
    "province": "ON",
    "qualityScore": 2,
    "source": "overpass",
    "osmType": "node",
    "osmId": 3744131802,
    "lat": 43.5924565,
    "lon": -79.6262931,
    "foundAt": "2026-04-07T00:10:55.845Z",
    "query": "dentist Toronto ON"
  },
  {
    "name": "Mississauga Dental Arts",
    "website": "https://www.mississaugadentistry.com",
    "email": "",
    "phone": "+1-905-270-0007",
    "address": "350 Burnhamthorpe Road East",
    "city": "Toronto",
    "province": "ON",
    "qualityScore": 3,
    "source": "overpass",
    "osmType": "node",
    "osmId": 3753083085,
    "lat": 43.6005085,
    "lon": -79.6259214,
    "foundAt": "2026-04-07T00:10:55.845Z",
    "query": "dentist Toronto ON"
  },
  {
    "name": "TMJ & Sleep Dentistry",
    "website": "https://tmjsleepdental.com",
    "email": "",
    "phone": "+1-905-566-5588",
    "address": "",
    "city": "Toronto",
    "province": "ON",
    "qualityScore": 2,
    "source": "overpass",
    "osmType": "node",
    "osmId": 3871138375,
    "lat": 43.6074995,
    "lon": -79.6029014,
    "foundAt": "2026-04-07T00:10:55.845Z",
    "query": "dentist Toronto ON"
  },
  {
    "name": "Park Lawn Dental",
    "website": "http://www.parklawndental.ca",
    "email": "",
    "phone": "+1-416-231-9163",
    "address": "172 The Queensway",
    "city": "Toronto",
    "province": "ON",
    "qualityScore": 3,
    "source": "overpass",
    "osmType": "node",
    "osmId": 3880393660,
    "lat": 43.6302586,
    "lon": -79.4856738,
    "foundAt": "2026-04-07T00:10:55.845Z",
    "query": "dentist Toronto ON"
  },
  {
    "name": "Kngbury Dental",
    "website": "https://www.kingsburydental.com",
    "email": "",
    "phone": "+1-905-629-1331",
    "address": "",
    "city": "Toronto",
    "province": "ON",
    "qualityScore": 2,
    "source": "overpass",
    "osmType": "node",
    "osmId": 3886265328,
    "lat": 43.6363998,
    "lon": -79.5970789,
    "foundAt": "2026-04-07T00:10:55.845Z",
    "query": "dentist Toronto ON"
  },
  {
    "name": "Birchmount Dental Group",
    "website": "https://birchmountdentalgroup.com",
    "email": "",
    "phone": "+1-416-750-7175",
    "address": "2000 Eglinton Avenue East",
    "city": "Toronto",
    "province": "ON",
    "qualityScore": 3,
    "source": "overpass",
    "osmType": "node",
    "osmId": 3888560159,
    "lat": 43.7291629,
    "lon": -79.2833272,
    "foundAt": "2026-04-07T00:10:55.845Z",
    "query": "dentist Toronto ON"
  },
  {
    "name": "Westend Dental",
    "website": "https://www.westenddentalassociates.com",
    "email": "",
    "phone": "+1-905-273-3730",
    "address": "",
    "city": "Toronto",
    "province": "ON",
    "qualityScore": 2,
    "source": "overpass",
    "osmType": "node",
    "osmId": 3907577355,
    "lat": 43.6100459,
    "lon": -79.5869944,
    "foundAt": "2026-04-07T00:10:55.846Z",
    "query": "dentist Toronto ON"
  },
  {
    "name": "Summerville Dentistry",
    "website": "https://summervilledentistry.ca",
    "email": "",
    "phone": "+1-905-848-5522",
    "address": "",
    "city": "Toronto",
    "province": "ON",
    "qualityScore": 2,
    "source": "overpass",
    "osmType": "node",
    "osmId": 3927128543,
    "lat": 43.6151585,
    "lon": -79.5768294,
    "foundAt": "2026-04-07T00:10:55.846Z",
    "query": "dentist Toronto ON"
  },
  {
    "name": "Aviva Dental",
    "website": "http://avivadental.com",
    "email": "",
    "phone": "+1-416-679-1900",
    "address": "",
    "city": "Toronto",
    "province": "ON",
    "qualityScore": 2,
    "source": "overpass",
    "osmType": "node",
    "osmId": 3929853643,
    "lat": 43.7210382,
    "lon": -79.6140399,
    "foundAt": "2026-04-07T00:10:55.846Z",
    "query": "dentist Toronto ON"
  },
  {
    "name": "Bloor Valley Dental Office",
    "website": "http://www.dralexmanacki.ca",
    "email": "",
    "phone": "+1-905-273-5600",
    "address": "632 Bloor Street",
    "city": "Toronto",
    "province": "ON",
    "qualityScore": 3,
    "source": "overpass",
    "osmType": "node",
    "osmId": 3940647359,
    "lat": 43.5990136,
    "lon": -79.6118348,
    "foundAt": "2026-04-07T00:10:55.846Z",
    "query": "dentist Toronto ON"
  },
  {
    "name": "Saban Familly Dental",
    "website": "https://www.sabandental.com",
    "email": "",
    "phone": "+1-416-236-0009",
    "address": "325 Burnhamthorpe Road",
    "city": "Toronto",
    "province": "ON",
    "qualityScore": 3,
    "source": "overpass",
    "osmType": "node",
    "osmId": 3948351745,
    "lat": 43.648864,
    "lon": -79.549672,
    "foundAt": "2026-04-07T00:10:55.846Z",
    "query": "dentist Toronto ON"
  },
  {
    "name": "Tomken Centre Dentistry",
    "website": "https://tomkendental.com",
    "email": "",
    "phone": "+1-905-848-1074",
    "address": "",
    "city": "Toronto",
    "province": "ON",
    "qualityScore": 2,
    "source": "overpass",
    "osmType": "node",
    "osmId": 4020625332,
    "lat": 43.6158787,
    "lon": -79.6179612,
    "foundAt": "2026-04-07T00:10:55.846Z",
    "query": "dentist Toronto ON"
  },
  {
    "name": "Toronto Lakeshore Dental",
    "website": "https://www.torontolakeshoredental.ca",
    "email": "",
    "phone": "+1-416-503-3335",
    "address": "",
    "city": "Toronto",
    "province": "ON",
    "qualityScore": 2,
    "source": "overpass",
    "osmType": "node",
    "osmId": 4028982150,
    "lat": 43.5946687,
    "lon": -79.5336782,
    "foundAt": "2026-04-07T00:10:55.846Z",
    "query": "dentist Toronto ON"
  },
  {
    "name": "Mimico Creek Dental",
    "website": "https://www.braydondentalcare.com",
    "email": "",
    "phone": "+1-416-259-0020",
    "address": "2198 Lake Shore Boulevard West",
    "city": "Toronto",
    "province": "ON",
    "qualityScore": 3,
    "source": "overpass",
    "osmType": "node",
    "osmId": 4136859713,
    "lat": 43.6227667,
    "lon": -79.4818622,
    "foundAt": "2026-04-07T00:10:55.846Z",
    "query": "dentist Toronto ON"
  },
  {
    "name": "West Mall Dental Group",
    "website": "http://westmalldental.ca",
    "email": "drstanleymann@gmail.com",
    "phone": "+1-416-622-2200",
    "address": "290 The West Mall",
    "city": "Toronto",
    "province": "ON",
    "qualityScore": 4,
    "source": "overpass",
    "osmType": "node",
    "osmId": 4137896886,
    "lat": 43.6348059,
    "lon": -79.5625626,
    "foundAt": "2026-04-07T00:10:55.846Z",
    "query": "dentist Toronto ON"
  },
  {
    "name": "King East Dentist",
    "website": "http://www.ked-dentist.ca",
    "email": "",
    "phone": "",
    "address": "201 King Street East",
    "city": "Toronto",
    "province": "ON",
    "qualityScore": 2,
    "source": "overpass",
    "osmType": "node",
    "osmId": 4315320601,
    "lat": 43.6508337,
    "lon": -79.3695888,
    "foundAt": "2026-04-07T00:10:55.846Z",
    "query": "dentist Toronto ON"
  },
  {
    "name": "Dentistry on Dupont",
    "website": "https://www.dentistryondupont.ca",
    "email": "",
    "phone": "+14165530531",
    "address": "",
    "city": "Toronto",
    "province": "ON",
    "qualityScore": 2,
    "source": "overpass",
    "osmType": "node",
    "osmId": 4330834125,
    "lat": 43.6666066,
    "lon": -79.4462264,
    "foundAt": "2026-04-07T00:10:55.846Z",
    "query": "dentist Toronto ON"
  },
  {
    "name": "The Dental Hygiene Group",
    "website": "https://dentalhygienegroup.ca",
    "email": "",
    "phone": "+1-416-799-8344",
    "address": "3391 Bloor Street West",
    "city": "Toronto",
    "province": "ON",
    "qualityScore": 3,
    "source": "overpass",
    "osmType": "node",
    "osmId": 4338318796,
    "lat": 43.6443304,
    "lon": -79.5240621,
    "foundAt": "2026-04-07T00:10:55.846Z",
    "query": "dentist Toronto ON"
  },
  {
    "name": "Roncesvalles Dental Centre",
    "website": "https://www.roncesvallesdentalcentre.com",
    "email": "",
    "phone": "+1 416 530 2400",
    "address": "235 Roncesvalles Avenue",
    "city": "Toronto",
    "province": "ON",
    "qualityScore": 3,
    "source": "overpass",
    "osmType": "node",
    "osmId": 4349216589,
    "lat": 43.6462434,
    "lon": -79.4488457,
    "foundAt": "2026-04-07T00:10:55.846Z",
    "query": "dentist Toronto ON"
  },
  {
    "name": "Four Season Dental Care",
    "website": "http://www.4seasons-dental.com",
    "email": "",
    "phone": "+1-416-604-8600",
    "address": "",
    "city": "Toronto",
    "province": "ON",
    "qualityScore": 2,
    "source": "overpass",
    "osmType": "node",
    "osmId": 4494740453,
    "lat": 43.6497784,
    "lon": -79.4848324,
    "foundAt": "2026-04-07T00:10:55.846Z",
    "query": "dentist Toronto ON"
  },
  {
    "name": "Queen's Plate Dental",
    "website": "https://www.queensplatedental.com",
    "email": "",
    "phone": "+1-416-746-0045",
    "address": "",
    "city": "Toronto",
    "province": "ON",
    "qualityScore": 2,
    "source": "overpass",
    "osmType": "node",
    "osmId": 4510510473,
    "lat": 43.7152461,
    "lon": -79.592955,
    "foundAt": "2026-04-07T00:10:55.846Z",
    "query": "dentist Toronto ON"
  },
  {
    "name": "Parkview Dental",
    "website": "https://www.parkviewdentaltoronto.com",
    "email": "",
    "phone": "+1-416-640-0484",
    "address": "600 Fleet Street",
    "city": "Toronto",
    "province": "ON",
    "qualityScore": 3,
    "source": "overpass",
    "osmType": "node",
    "osmId": 4531150404,
    "lat": 43.6368475,
    "lon": -79.4000296,
    "foundAt": "2026-04-07T00:10:55.846Z",
    "query": "dentist Toronto ON"
  },
  {
    "name": "Eringate Dental Clnic",
    "website": "https://www.eringatedental.com",
    "email": "",
    "phone": "+1-416-695-9372",
    "address": "",
    "city": "Toronto",
    "province": "ON",
    "qualityScore": 2,
    "source": "overpass",
    "osmType": "node",
    "osmId": 4554824379,
    "lat": 43.6533734,
    "lon": -79.5723854,
    "foundAt": "2026-04-07T00:10:55.846Z",
    "query": "dentist Toronto ON"
  },
  {
    "name": "Dr. Karen Kassabian Family & Cosmetic Dentistry",
    "website": "https://karenkassabian.com",
    "email": "",
    "phone": "+1-416-498-9199",
    "address": "3430 Finch Avenue East",
    "city": "Toronto",
    "province": "ON",
    "qualityScore": 3,
    "source": "overpass",
    "osmType": "node",
    "osmId": 4564680140,
    "lat": 43.7972545,
    "lon": -79.3148574,
    "foundAt": "2026-04-07T00:10:55.846Z",
    "query": "dentist Toronto ON"
  },
  {
    "name": "Harbord Dentistry",
    "website": "https://www.harborddentistry.com",
    "email": "",
    "phone": "+1-416-546-5416",
    "address": "91 Harbord Street",
    "city": "Toronto",
    "province": "ON",
    "qualityScore": 3,
    "source": "overpass",
    "osmType": "node",
    "osmId": 4636484553,
    "lat": 43.6626353,
    "lon": -79.4034881,
    "foundAt": "2026-04-07T00:10:55.846Z",
    "query": "dentist Toronto ON"
  },
  {
    "name": "Downsview Plaza Dental Office",
    "website": "https://www.dpdo.ca",
    "email": "",
    "phone": "+1-416-633-6443",
    "address": "",
    "city": "Toronto",
    "province": "ON",
    "qualityScore": 2,
    "source": "overpass",
    "osmType": "node",
    "osmId": 4642775112,
    "lat": 43.728249,
    "lon": -79.4804209,
    "foundAt": "2026-04-07T00:10:55.847Z",
    "query": "dentist Toronto ON"
  },
  {
    "name": "Dr. Alain Nourkeyhani",
    "website": "http://dentaldr.ca",
    "email": "",
    "phone": "+1-416-493-7657",
    "address": "5 Fairview Mall Drive",
    "city": "Toronto",
    "province": "ON",
    "qualityScore": 3,
    "source": "overpass",
    "osmType": "node",
    "osmId": 4671441081,
    "lat": 43.7786627,
    "lon": -79.3479806,
    "foundAt": "2026-04-07T00:10:55.847Z",
    "query": "dentist Toronto ON"
  },
  {
    "name": "Davisville Family Dentistry",
    "website": "https://www.davisvillefamilydentistry.com",
    "email": "",
    "phone": "+1 416-922-6812",
    "address": "1992 Yonge Street",
    "city": "Toronto",
    "province": "ON",
    "qualityScore": 3,
    "source": "overpass",
    "osmType": "node",
    "osmId": 4696459602,
    "lat": 43.7002392,
    "lon": -79.3971965,
    "foundAt": "2026-04-07T00:10:55.847Z",
    "query": "dentist Toronto ON"
  },
  {
    "name": "Bathurst Dupont Dental",
    "website": "https://www.bathurstdupont.com",
    "email": "",
    "phone": "+1 416-531-3451",
    "address": "1074 Bathurst Street",
    "city": "Toronto",
    "province": "ON",
    "qualityScore": 3,
    "source": "overpass",
    "osmType": "node",
    "osmId": 4704035712,
    "lat": 43.6724097,
    "lon": -79.4142233,
    "foundAt": "2026-04-07T00:10:55.847Z",
    "query": "dentist Toronto ON"
  },
  {
    "name": "Smile Design Dental Studio",
    "website": "https://smiledesignstudio.ca",
    "email": "",
    "phone": "",
    "address": "1269 Bloor Street West",
    "city": "Toronto",
    "province": "ON",
    "qualityScore": 2,
    "source": "overpass",
    "osmType": "node",
    "osmId": 5022507087,
    "lat": 43.6583847,
    "lon": -79.4419281,
    "foundAt": "2026-04-07T00:10:55.847Z",
    "query": "dentist Toronto ON"
  },
  {
    "name": "Bloor Kipling Dentistry",
    "website": "https://bloorkiplingdentistry.com",
    "email": "",
    "phone": "+1-416-239-4393",
    "address": "3843 Bloor Street West",
    "city": "Toronto",
    "province": "ON",
    "qualityScore": 3,
    "source": "overpass",
    "osmType": "node",
    "osmId": 5027192693,
    "lat": 43.6406658,
    "lon": -79.5390582,
    "foundAt": "2026-04-07T00:10:55.847Z",
    "query": "dentist Toronto ON"
  },
  {
    "name": "Vaughan Road Dental",
    "website": "https://arlingtondental.ca",
    "email": "",
    "phone": "+1 416-652-1695",
    "address": "32 Vaughan Road",
    "city": "Toronto",
    "province": "ON",
    "qualityScore": 3,
    "source": "overpass",
    "osmType": "node",
    "osmId": 5029781056,
    "lat": 43.6819446,
    "lon": -79.4187674,
    "foundAt": "2026-04-07T00:10:55.847Z",
    "query": "dentist Toronto ON"
  },
  {
    "name": "Fresh Smiles Dental Hygiene Clinic",
    "website": "https://www.freshsmiles.ca",
    "email": "freshsmiles247@yahoo.ca",
    "phone": "+1-416-622-2500",
    "address": "3887 Bloor Street West",
    "city": "Toronto",
    "province": "ON",
    "qualityScore": 4,
    "source": "overpass",
    "osmType": "node",
    "osmId": 5037132797,
    "lat": 43.6400123,
    "lon": -79.5426527,
    "foundAt": "2026-04-07T00:10:55.847Z",
    "query": "dentist Toronto ON"
  },
  {
    "name": "West Etobicoke Dental Centre",
    "website": "https://westetobicokedental.ca",
    "email": "",
    "phone": "+1-416-621-1010",
    "address": "",
    "city": "Toronto",
    "province": "ON",
    "qualityScore": 2,
    "source": "overpass",
    "osmType": "node",
    "osmId": 5051205594,
    "lat": 43.6455532,
    "lon": -79.5600846,
    "foundAt": "2026-04-07T00:10:55.847Z",
    "query": "dentist Toronto ON"
  },
  {
    "name": "The Dental Clinic",
    "website": "http://www.thedentalclinic.ca",
    "email": "info@thedentalclinic.ca",
    "phone": "+1-416-233-9581",
    "address": "4869 Dundas Street West",
    "city": "Toronto",
    "province": "ON",
    "qualityScore": 4,
    "source": "overpass",
    "osmType": "node",
    "osmId": 5159436070,
    "lat": 43.6500459,
    "lon": -79.5272358,
    "foundAt": "2026-04-07T00:10:55.847Z",
    "query": "dentist Toronto ON"
  },
  {
    "name": "Dental on Dundas",
    "website": "https://www.emergdent.com",
    "email": "",
    "phone": "",
    "address": "5080 Dundas Street West",
    "city": "Toronto",
    "province": "ON",
    "qualityScore": 2,
    "source": "overpass",
    "osmType": "node",
    "osmId": 5161264363,
    "lat": 43.6453272,
    "lon": -79.5323789,
    "foundAt": "2026-04-07T00:10:55.847Z",
    "query": "dentist Toronto ON"
  },
  {
    "name": "J. Kennedy Dentistry",
    "website": "https://kennedydental.ca",
    "email": "",
    "phone": "+1-416-239-9601",
    "address": "5020 Dundas Street West",
    "city": "Toronto",
    "province": "ON",
    "qualityScore": 3,
    "source": "overpass",
    "osmType": "node",
    "osmId": 5161264418,
    "lat": 43.6464826,
    "lon": -79.531064,
    "foundAt": "2026-04-07T00:10:55.847Z",
    "query": "dentist Toronto ON"
  },
  {
    "name": "Helen Chiu Paediatric Dentistry",
    "website": "https://www.drhelenchiupaediatricdentistry.ca",
    "email": "",
    "phone": "+1-416-492-2724",
    "address": "5 Fairview Mall Drive",
    "city": "Toronto",
    "province": "ON",
    "qualityScore": 3,
    "source": "overpass",
    "osmType": "node",
    "osmId": 5180766421,
    "lat": 43.7787346,
    "lon": -79.3480899,
    "foundAt": "2026-04-07T00:10:55.847Z",
    "query": "dentist Toronto ON"
  },
  {
    "name": "20 Finch Dental",
    "website": "https://20finchdental.com",
    "email": "info@20finchdental.com",
    "phone": "+1-416-225-5544",
    "address": "20 Finch Avenue West",
    "city": "Toronto",
    "province": "ON",
    "qualityScore": 4,
    "source": "overpass",
    "osmType": "node",
    "osmId": 5278928752,
    "lat": 43.7795153,
    "lon": -79.4172835,
    "foundAt": "2026-04-07T00:10:55.847Z",
    "query": "dentist Toronto ON"
  },
  {
    "name": "Bloor Dental",
    "website": "https://bloordentalclinic.com",
    "email": "",
    "phone": "",
    "address": "464 Bloor Street West",
    "city": "Toronto",
    "province": "ON",
    "qualityScore": 2,
    "source": "overpass",
    "osmType": "node",
    "osmId": 5335713621,
    "lat": 43.6656578,
    "lon": -79.4092707,
    "foundAt": "2026-04-07T00:10:55.847Z",
    "query": "dentist Toronto ON"
  },
  {
    "name": "Orthodontic Studio - @ Roncy",
    "website": "https://orthostudio.ca",
    "email": "",
    "phone": "+1-647-346-7024",
    "address": "307 Roncesvalles Avenue",
    "city": "Toronto",
    "province": "ON",
    "qualityScore": 3,
    "source": "overpass",
    "osmType": "node",
    "osmId": 5508642021,
    "lat": 43.64834,
    "lon": -79.4496569,
    "foundAt": "2026-04-07T00:10:55.847Z",
    "query": "dentist Toronto ON"
  },
  {
    "name": "Astra Dental",
    "website": "https://www.astradental.ca",
    "email": "",
    "phone": "+1-416-640-0070",
    "address": "5255 Yonge Street",
    "city": "Toronto",
    "province": "ON",
    "qualityScore": 3,
    "source": "overpass",
    "osmType": "node",
    "osmId": 5593236634,
    "lat": 43.7718651,
    "lon": -79.4130057,
    "foundAt": "2026-04-07T00:10:55.847Z",
    "query": "dentist Toronto ON"
  },
  {
    "name": "Bathurst Dundas Dental Centre | Dr. Howard Lim",
    "website": "https://bathurstdundasdentalcentre.com",
    "email": "",
    "phone": "+1 416-603-5677",
    "address": "758 Dundas Street West",
    "city": "Toronto",
    "province": "ON",
    "qualityScore": 3,
    "source": "overpass",
    "osmType": "node",
    "osmId": 5720581122,
    "lat": 43.6522651,
    "lon": -79.406789,
    "foundAt": "2026-04-07T00:10:55.847Z",
    "query": "dentist Toronto ON"
  },
  {
    "name": "Wellesley Dental Centre",
    "website": "https://wellesleydental.ca",
    "email": "",
    "phone": "+1-416-923-3325",
    "address": "65 Wellesley Street East",
    "city": "Toronto",
    "province": "ON",
    "qualityScore": 3,
    "source": "overpass",
    "osmType": "node",
    "osmId": 5749733121,
    "lat": 43.6655026,
    "lon": -79.3812818,
    "foundAt": "2026-04-07T00:10:55.847Z",
    "query": "dentist Toronto ON"
  },
  {
    "name": "Lu Dental",
    "website": "https://ludental.com",
    "email": "ludental85@gmail.com",
    "phone": "+1-416-224-9377",
    "address": "4789 Yonge Street",
    "city": "Toronto",
    "province": "ON",
    "qualityScore": 4,
    "source": "overpass",
    "osmType": "node",
    "osmId": 5892566400,
    "lat": 43.7611979,
    "lon": -79.4101412,
    "foundAt": "2026-04-07T00:10:55.847Z",
    "query": "dentist Toronto ON"
  },
  {
    "name": "North Shores Dental",
    "website": "https://www.northshoresdental.com",
    "email": "",
    "phone": "+1-416-694-8177",
    "address": "916 Kingston Road",
    "city": "Toronto",
    "province": "ON",
    "qualityScore": 3,
    "source": "overpass",
    "osmType": "node",
    "osmId": 6070499842,
    "lat": 43.6804686,
    "lon": -79.2891631,
    "foundAt": "2026-04-07T00:10:55.847Z",
    "query": "dentist Toronto ON"
  },
  {
    "name": "Michou Dental",
    "website": "https://michoudental.com",
    "email": "",
    "phone": "",
    "address": "5101 Dundas Street West",
    "city": "Toronto",
    "province": "ON",
    "qualityScore": 2,
    "source": "overpass",
    "osmType": "node",
    "osmId": 6172170857,
    "lat": 43.6448493,
    "lon": -79.5320477,
    "foundAt": "2026-04-07T00:10:55.847Z",
    "query": "dentist Toronto ON"
  },
  {
    "name": "Village Dental",
    "website": "https://villagedental.ca",
    "email": "",
    "phone": "+1-416-233-9638",
    "address": "4931 Dundas Street West",
    "city": "Toronto",
    "province": "ON",
    "qualityScore": 3,
    "source": "overpass",
    "osmType": "node",
    "osmId": 6172170884,
    "lat": 43.6482655,
    "lon": -79.5289561,
    "foundAt": "2026-04-07T00:10:55.847Z",
    "query": "dentist Toronto ON"
  },
  {
    "name": "Mint Dentistry",
    "website": "https://www.mintdentistry.ca",
    "email": "",
    "phone": "+1-416-516-6468",
    "address": "1153 Queen Street West",
    "city": "Toronto",
    "province": "ON",
    "qualityScore": 3,
    "source": "overpass",
    "osmType": "node",
    "osmId": 6181451963,
    "lat": 43.6427113,
    "lon": -79.4250959,
    "foundAt": "2026-04-07T00:10:55.847Z",
    "query": "dentist Toronto ON"
  },
  {
    "name": "Lisgar Park Dental",
    "website": "https://lisgarparkdental.com",
    "email": "",
    "phone": "+1-647-350-5530",
    "address": "",
    "city": "Toronto",
    "province": "ON",
    "qualityScore": 2,
    "source": "overpass",
    "osmType": "node",
    "osmId": 6181451968,
    "lat": 43.6424109,
    "lon": -79.4242577,
    "foundAt": "2026-04-07T00:10:55.847Z",
    "query": "dentist Toronto ON"
  },
  {
    "name": "North Queen Dental",
    "website": "https://www.nqdental.com",
    "email": "",
    "phone": "+1 416 620 0808",
    "address": "",
    "city": "Toronto",
    "province": "ON",
    "qualityScore": 2,
    "source": "overpass",
    "osmType": "node",
    "osmId": 6298763072,
    "lat": 43.6186483,
    "lon": -79.5560208,
    "foundAt": "2026-04-07T00:10:55.847Z",
    "query": "dentist Toronto ON"
  },
  {
    "name": "Cosentino Dental Care",
    "website": "https://costentinodentalcare.ca",
    "email": "",
    "phone": "+1-416-234-2223",
    "address": "3327 Bloor Street West",
    "city": "Toronto",
    "province": "ON",
    "qualityScore": 3,
    "source": "overpass",
    "osmType": "node",
    "osmId": 6304868757,
    "lat": 43.6451011,
    "lon": -79.5207978,
    "foundAt": "2026-04-07T00:10:55.847Z",
    "query": "dentist Toronto ON"
  },
  {
    "name": "Etobicoke Dental",
    "website": "https://etobicokedentaloffice.ca",
    "email": "info@etobicokedentaloffice.ca",
    "phone": "+1 647-600-9955",
    "address": "3107 Bloor Street West",
    "city": "Toronto",
    "province": "ON",
    "qualityScore": 4,
    "source": "overpass",
    "osmType": "node",
    "osmId": 6304924277,
    "lat": 43.646157,
    "lon": -79.5159209,
    "foundAt": "2026-04-07T00:10:55.847Z",
    "query": "dentist Toronto ON"
  },
  {
    "name": "Kingsway Family Dentistry",
    "website": "https://kfdent.ca",
    "email": "",
    "phone": "+1-416-207-1377",
    "address": "2981 Bloor Street West",
    "city": "Toronto",
    "province": "ON",
    "qualityScore": 3,
    "source": "overpass",
    "osmType": "node",
    "osmId": 6306230107,
    "lat": 43.6476068,
    "lon": -79.5094635,
    "foundAt": "2026-04-07T00:10:55.847Z",
    "query": "dentist Toronto ON"
  },
  {
    "name": "Thomas Vesz, Endodontist",
    "website": "https://www.westendo.com",
    "email": "",
    "phone": "+1-416-233-2772",
    "address": "2895 Bloor Street West",
    "city": "Toronto",
    "province": "ON",
    "qualityScore": 3,
    "source": "overpass",
    "osmType": "node",
    "osmId": 6306326500,
    "lat": 43.6483108,
    "lon": -79.5063266,
    "foundAt": "2026-04-07T00:10:55.847Z",
    "query": "dentist Toronto ON"
  },
  {
    "name": "Orthodontics on Bloor",
    "website": "https://orthodonticsonbloor.com",
    "email": "",
    "phone": "+1-416-551-7273",
    "address": "2945 Bloor Street West",
    "city": "Toronto",
    "province": "ON",
    "qualityScore": 3,
    "source": "overpass",
    "osmType": "node",
    "osmId": 6306326513,
    "lat": 43.6479314,
    "lon": -79.5076013,
    "foundAt": "2026-04-07T00:10:55.847Z",
    "query": "dentist Toronto ON"
  },
  {
    "name": "Dr. Maria Ana Marcelo",
    "website": "https://www.dranamarcelo.com",
    "email": "info@dranamarcelo.com",
    "phone": "+1-416-239-8300",
    "address": "5121 Dundas Street West",
    "city": "Toronto",
    "province": "ON",
    "qualityScore": 4,
    "source": "overpass",
    "osmType": "node",
    "osmId": 6313806641,
    "lat": 43.6443757,
    "lon": -79.5324744,
    "foundAt": "2026-04-07T00:10:55.847Z",
    "query": "dentist Toronto ON"
  },
  {
    "name": "Studio Dental",
    "website": "https://studiodentalcentres.ca",
    "email": "",
    "phone": "+1 4168001476",
    "address": "25 The West Mall",
    "city": "Toronto",
    "province": "ON",
    "qualityScore": 3,
    "source": "overpass",
    "osmType": "node",
    "osmId": 6321380378,
    "lat": 43.611224,
    "lon": -79.558836,
    "foundAt": "2026-04-07T00:10:55.847Z",
    "query": "dentist Toronto ON"
  },
  {
    "name": "Berco & Deluco Orthodontics",
    "website": "http://bdortho.com",
    "email": "",
    "phone": "+1-416-769-2526",
    "address": "2350 Bloor Street West",
    "city": "Toronto",
    "province": "ON",
    "qualityScore": 3,
    "source": "overpass",
    "osmType": "node",
    "osmId": 6334441779,
    "lat": 43.6502201,
    "lon": -79.4811413,
    "foundAt": "2026-04-07T00:10:55.847Z",
    "query": "dentist Toronto ON"
  },
  {
    "name": "Dentists on Bloor",
    "website": "https://www.dentistsonbloor.ca",
    "email": "",
    "phone": "+1-416-588-8839",
    "address": "964 1/2 Bloor Street West",
    "city": "Toronto",
    "province": "ON",
    "qualityScore": 3,
    "source": "overpass",
    "osmType": "node",
    "osmId": 6340806339,
    "lat": 43.6614119,
    "lon": -79.4288986,
    "foundAt": "2026-04-07T00:10:55.847Z",
    "query": "dentist Toronto ON"
  },
  {
    "name": "Galleria Dental",
    "website": "https://www.galleriadental.ca",
    "email": "",
    "phone": "+1-416-534-9991",
    "address": "1066 Bloor Street West",
    "city": "Toronto",
    "province": "ON",
    "qualityScore": 3,
    "source": "overpass",
    "osmType": "node",
    "osmId": 6340850224,
    "lat": 43.6604383,
    "lon": -79.4331741,
    "foundAt": "2026-04-07T00:10:55.847Z",
    "query": "dentist Toronto ON"
  },
  {
    "name": "Aesthetic Room Toronto",
    "website": "https://artclinic.ca",
    "email": "",
    "phone": "+1 6479153782",
    "address": "1588 Bloor Street West",
    "city": "Toronto",
    "province": "ON",
    "qualityScore": 3,
    "source": "overpass",
    "osmType": "node",
    "osmId": 6341790736,
    "lat": 43.6560203,
    "lon": -79.4546579,
    "foundAt": "2026-04-07T00:10:55.847Z",
    "query": "dentist Toronto ON"
  },
  {
    "name": "Bloor West Dental Group",
    "website": "https://bloorwestdentalgroup.com",
    "email": "",
    "phone": "+1-416-766-1391",
    "address": "2274 Bloor Street West",
    "city": "Toronto",
    "province": "ON",
    "qualityScore": 3,
    "source": "overpass",
    "osmType": "node",
    "osmId": 6342369286,
    "lat": 43.6508387,
    "lon": -79.4783418,
    "foundAt": "2026-04-07T00:10:55.847Z",
    "query": "dentist Toronto ON"
  },
  {
    "name": "Bloor Smile Dental",
    "website": "https://bloorsmiledental.ca",
    "email": "",
    "phone": "+1-416-604-4009",
    "address": "2436A Bloor Street West",
    "city": "Toronto",
    "province": "ON",
    "qualityScore": 3,
    "source": "overpass",
    "osmType": "node",
    "osmId": 6342369300,
    "lat": 43.6495442,
    "lon": -79.484248,
    "foundAt": "2026-04-07T00:10:55.847Z",
    "query": "dentist Toronto ON"
  },
  {
    "name": "Brill Dental",
    "website": "https://brilldental.com",
    "email": "",
    "phone": "+1-416-534-4951",
    "address": "1017 Bloor Street West",
    "city": "Toronto",
    "province": "ON",
    "qualityScore": 3,
    "source": "overpass",
    "osmType": "node",
    "osmId": 6344082260,
    "lat": 43.6607507,
    "lon": -79.4307628,
    "foundAt": "2026-04-07T00:10:55.847Z",
    "query": "dentist Toronto ON"
  },
  {
    "name": "Clovedent Family Dentistry",
    "website": "https://www.clovedent.com",
    "email": "",
    "phone": "+1-416-533-5440",
    "address": "1621 Bloor Street West",
    "city": "Toronto",
    "province": "ON",
    "qualityScore": 3,
    "source": "overpass",
    "osmType": "node",
    "osmId": 6348434800,
    "lat": 43.655555,
    "lon": -79.4553043,
    "foundAt": "2026-04-07T00:10:55.847Z",
    "query": "dentist Toronto ON"
  },
  {
    "name": "MJ Dental Care",
    "website": "https://www.mjdental.com",
    "email": "",
    "phone": "+1-416-532-3002",
    "address": "1545 Bloor Street West",
    "city": "Toronto",
    "province": "ON",
    "qualityScore": 3,
    "source": "overpass",
    "osmType": "node",
    "osmId": 6348434807,
    "lat": 43.6560372,
    "lon": -79.4530807,
    "foundAt": "2026-04-07T00:10:55.847Z",
    "query": "dentist Toronto ON"
  },
  {
    "name": "Smile Care Dental",
    "website": "https://www.smilecare.ca",
    "email": "",
    "phone": "+1-416-767-4151",
    "address": "270 Runnymede Road",
    "city": "Toronto",
    "province": "ON",
    "qualityScore": 3,
    "source": "overpass",
    "osmType": "node",
    "osmId": 6357525981,
    "lat": 43.6517553,
    "lon": -79.476725,
    "foundAt": "2026-04-07T00:10:55.847Z",
    "query": "dentist Toronto ON"
  },
  {
    "name": "Queen Dental",
    "website": "https://queendental718.com",
    "email": "",
    "phone": "+1-416-703-0579",
    "address": "718 Queen Street West",
    "city": "Toronto",
    "province": "ON",
    "qualityScore": 3,
    "source": "overpass",
    "osmType": "node",
    "osmId": 6358218851,
    "lat": 43.6462836,
    "lon": -79.4090758,
    "foundAt": "2026-04-07T00:10:55.847Z",
    "query": "dentist Toronto ON"
  },
  {
    "name": "College & Dufferin Dental Clinic",
    "website": "https://collegedufferindental.com",
    "email": "",
    "phone": "+1-416-538-3538",
    "address": "1111 College Street",
    "city": "Toronto",
    "province": "ON",
    "qualityScore": 3,
    "source": "overpass",
    "osmType": "node",
    "osmId": 6360518125,
    "lat": 43.6524034,
    "lon": -79.4327038,
    "foundAt": "2026-04-07T00:10:55.847Z",
    "query": "dentist Toronto ON"
  },
  {
    "name": "Dr. Ileana Matiu",
    "website": "https://smileonbabypoint.com",
    "email": "",
    "phone": "+1 416-766-5900",
    "address": "325 Jane Street",
    "city": "Toronto",
    "province": "ON",
    "qualityScore": 3,
    "source": "overpass",
    "osmType": "node",
    "osmId": 6363116938,
    "lat": 43.6570429,
    "lon": -79.4874638,
    "foundAt": "2026-04-07T00:10:55.847Z",
    "query": "dentist Toronto ON"
  },
  {
    "name": "Dr. Michael Paltsev",
    "website": "https://littlegreenbuilding.com",
    "email": "",
    "phone": "+1-416-769-8135",
    "address": "265 Jane Street",
    "city": "Toronto",
    "province": "ON",
    "qualityScore": 3,
    "source": "overpass",
    "osmType": "node",
    "osmId": 6363116948,
    "lat": 43.6560988,
    "lon": -79.4870761,
    "foundAt": "2026-04-07T00:10:55.847Z",
    "query": "dentist Toronto ON"
  },
  {
    "name": "Bloor Lansdowne Dental Centre",
    "website": "https://www.bloorlansdownedental.ca",
    "email": "",
    "phone": "+1-416-535-7312",
    "address": "703 Lansdowne Avenue",
    "city": "Toronto",
    "province": "ON",
    "qualityScore": 3,
    "source": "overpass",
    "osmType": "node",
    "osmId": 6363749793,
    "lat": 43.6593968,
    "lon": -79.4429185,
    "foundAt": "2026-04-07T00:10:55.847Z",
    "query": "dentist Toronto ON"
  },
  {
    "name": "Bloor West Village Dental Care",
    "website": "http://www.bloorwestdentist.com",
    "email": "",
    "phone": "+1-416-763-5677",
    "address": "2373 Bloor Street West",
    "city": "Toronto",
    "province": "ON",
    "qualityScore": 3,
    "source": "overpass",
    "osmType": "node",
    "osmId": 6365262321,
    "lat": 43.6497233,
    "lon": -79.4819608,
    "foundAt": "2026-04-07T00:10:55.847Z",
    "query": "dentist Toronto ON"
  },
  {
    "name": "The Meticulous Smile",
    "website": "https://meticuloussmile.ca",
    "email": "",
    "phone": "+1-647-348-7748",
    "address": "233 Carlaw Avenue",
    "city": "Toronto",
    "province": "ON",
    "qualityScore": 3,
    "source": "overpass",
    "osmType": "node",
    "osmId": 6365495271,
    "lat": 43.6629695,
    "lon": -79.3406969,
    "foundAt": "2026-04-07T00:10:55.847Z",
    "query": "dentist Toronto ON"
  },
  {
    "name": "Bloor Dufferin Dental Centre",
    "website": "https://bloordufferindental.com",
    "email": "",
    "phone": "+1-416-532-7900",
    "address": "1108 Bloor Street West",
    "city": "Toronto",
    "province": "ON",
    "qualityScore": 3,
    "source": "overpass",
    "osmType": "node",
    "osmId": 6371102738,
    "lat": 43.6601084,
    "lon": -79.4347358,
    "foundAt": "2026-04-07T00:10:55.847Z",
    "query": "dentist Toronto ON"
  },
  {
    "name": "Dr. Timothy Milligan",
    "website": "https://www.highparkdentist.com",
    "email": "",
    "phone": "+1-416-766-6225",
    "address": "",
    "city": "Toronto",
    "province": "ON",
    "qualityScore": 2,
    "source": "overpass",
    "osmType": "node",
    "osmId": 6375000284,
    "lat": 43.6545575,
    "lon": -79.4615941,
    "foundAt": "2026-04-07T00:10:55.848Z",
    "query": "dentist Toronto ON"
  },
  {
    "name": "Doggy Daycare & Boarding",
    "website": "https://dantesboarding.com",
    "email": "",
    "phone": "+1 6474519949",
    "address": "3320 Lake Shore Boulevard West",
    "city": "Toronto",
    "province": "ON",
    "qualityScore": 3,
    "source": "overpass",
    "osmType": "node",
    "osmId": 6376455279,
    "lat": 43.5966497,
    "lon": -79.5251423,
    "foundAt": "2026-04-07T00:10:55.848Z",
    "query": "dentist Toronto ON"
  },
  {
    "name": "Dr. Muyal & Associates",
    "website": "https://www.muyaldentistry.ca",
    "email": "muyaldentistry@hotmail.ca",
    "phone": "+1-416-531-5600",
    "address": "2335 Dundas Street West",
    "city": "Toronto",
    "province": "ON",
    "qualityScore": 4,
    "source": "overpass",
    "osmType": "node",
    "osmId": 6382301642,
    "lat": 43.6559596,
    "lon": -79.4525322,
    "foundAt": "2026-04-07T00:10:55.848Z",
    "query": "dentist Toronto ON"
  },
  {
    "name": "Campus Dental",
    "website": "https://www.loveyourteeth.ca",
    "email": "",
    "phone": "+1-647-351-9755",
    "address": "3210 Lake Shore Boulevard West",
    "city": "Toronto",
    "province": "ON",
    "qualityScore": 3,
    "source": "overpass",
    "osmType": "node",
    "osmId": 6386821110,
    "lat": 43.5974413,
    "lon": -79.5210291,
    "foundAt": "2026-04-07T00:10:55.848Z",
    "query": "dentist Toronto ON"
  },
  {
    "name": "King West Dentistry",
    "website": "https://www.kingwestdentistry.com",
    "email": "",
    "phone": "+1 647 726 2100",
    "address": "",
    "city": "Toronto",
    "province": "ON",
    "qualityScore": 2,
    "source": "overpass",
    "osmType": "node",
    "osmId": 6386975401,
    "lat": 43.643461,
    "lon": -79.4057042,
    "foundAt": "2026-04-07T00:10:55.848Z",
    "query": "dentist Toronto ON"
  },
  {
    "name": "The Village Dentist",
    "website": "https://thevillagedentist.com",
    "email": "",
    "phone": "+1-416-760-0404",
    "address": "750 Annette Street",
    "city": "Toronto",
    "province": "ON",
    "qualityScore": 3,
    "source": "overpass",
    "osmType": "node",
    "osmId": 6423958630,
    "lat": 43.6586312,
    "lon": -79.4870509,
    "foundAt": "2026-04-07T00:10:55.848Z",
    "query": "dentist Toronto ON"
  },
  {
    "name": "East Mall Family Dental",
    "website": "https://www.eastmalldental.com",
    "email": "",
    "phone": "+1-416-621-2550",
    "address": "",
    "city": "Toronto",
    "province": "ON",
    "qualityScore": 2,
    "source": "overpass",
    "osmType": "node",
    "osmId": 6444340002,
    "lat": 43.6197701,
    "lon": -79.5483846,
    "foundAt": "2026-04-07T00:10:55.848Z",
    "query": "dentist Toronto ON"
  },
  {
    "name": "Karen Dental",
    "website": "https://karendental.com",
    "email": "",
    "phone": "+1-905-270-3161",
    "address": "169 Dundas Street East",
    "city": "Toronto",
    "province": "ON",
    "qualityScore": 3,
    "source": "overpass",
    "osmType": "node",
    "osmId": 6475614463,
    "lat": 43.5846634,
    "lon": -79.6127312,
    "foundAt": "2026-04-07T00:10:55.848Z",
    "query": "dentist Toronto ON"
  },
  {
    "name": "Aldent Smile Dentistry",
    "website": "https://www.aldentsmiledentistry.ca",
    "email": "",
    "phone": "+1-416-252-2262",
    "address": "1193 The Queensway",
    "city": "Toronto",
    "province": "ON",
    "qualityScore": 3,
    "source": "overpass",
    "osmType": "node",
    "osmId": 6509946330,
    "lat": 43.6217512,
    "lon": -79.5219934,
    "foundAt": "2026-04-07T00:10:55.848Z",
    "query": "dentist Toronto ON"
  },
  {
    "name": "Dental Centre on Bloor",
    "website": "https://dentalbloor.com",
    "email": "",
    "phone": "+1-416-343-8553",
    "address": "3311 Bloor Street West",
    "city": "Toronto",
    "province": "ON",
    "qualityScore": 3,
    "source": "overpass",
    "osmType": "node",
    "osmId": 6521478042,
    "lat": 43.6451846,
    "lon": -79.5201641,
    "foundAt": "2026-04-07T00:10:55.848Z",
    "query": "dentist Toronto ON"
  },
  {
    "name": "Parkwoods Dental",
    "website": "https://www.parkwoodsdental.ca",
    "email": "client@parkwoodsdental.ca",
    "phone": "+1-416-444-2828",
    "address": "1271 York Mills Road",
    "city": "Toronto",
    "province": "ON",
    "qualityScore": 4,
    "source": "overpass",
    "osmType": "node",
    "osmId": 6542992474,
    "lat": 43.7607114,
    "lon": -79.3265583,
    "foundAt": "2026-04-07T00:10:55.848Z",
    "query": "dentist Toronto ON"
  },
  {
    "name": "Annex Orthodontics and Periodontics",
    "website": "https://annexorthoperio.com",
    "email": "",
    "phone": "+1 416-925-7300",
    "address": "1086 Bathurst Street",
    "city": "Toronto",
    "province": "ON",
    "qualityScore": 3,
    "source": "overpass",
    "osmType": "node",
    "osmId": 6551544253,
    "lat": 43.6726159,
    "lon": -79.414301,
    "foundAt": "2026-04-07T00:10:55.848Z",
    "query": "dentist Toronto ON"
  },
  {
    "name": "mh2 Dental",
    "website": "https://www.mh2dental.com",
    "email": "",
    "phone": "",
    "address": "900 Dufferin Street",
    "city": "Toronto",
    "province": "ON",
    "qualityScore": 2,
    "source": "overpass",
    "osmType": "node",
    "osmId": 6568182610,
    "lat": 43.6548097,
    "lon": -79.4345696,
    "foundAt": "2026-04-07T00:10:55.848Z",
    "query": "dentist Toronto ON"
  },
  {
    "name": "Titan Dental Care",
    "website": "https://titandental.ca",
    "email": "",
    "phone": "+1-416-234-2273",
    "address": "",
    "city": "Toronto",
    "province": "ON",
    "qualityScore": 2,
    "source": "overpass",
    "osmType": "node",
    "osmId": 6577693192,
    "lat": 43.6315141,
    "lon": -79.5194279,
    "foundAt": "2026-04-07T00:10:55.848Z",
    "query": "dentist Toronto ON"
  },
  {
    "name": "Queen Street Dental Centre",
    "website": "https://www.qsdc.ca",
    "email": "info@qsdc.ca",
    "phone": "+1-416-469-5261",
    "address": "930 Queen Street East",
    "city": "Toronto",
    "province": "ON",
    "qualityScore": 4,
    "source": "overpass",
    "osmType": "node",
    "osmId": 6685670120,
    "lat": 43.6608523,
    "lon": -79.3416229,
    "foundAt": "2026-04-07T00:10:55.848Z",
    "query": "dentist Toronto ON"
  },
  {
    "name": "Toronto Public Health Dental Clinic",
    "website": "https://www.toronto.ca",
    "email": "",
    "phone": "",
    "address": "791 Queen Street East",
    "city": "Toronto",
    "province": "ON",
    "qualityScore": 2,
    "source": "overpass",
    "osmType": "node",
    "osmId": 6685670259,
    "lat": 43.6591013,
    "lon": -79.3463007,
    "foundAt": "2026-04-07T00:10:55.848Z",
    "query": "dentist Toronto ON"
  },
  {
    "name": "Riverside Dental",
    "website": "https://www.riversidedentalcenter.ca",
    "email": "",
    "phone": "+1-647-348-6900",
    "address": "690B Queen Street East",
    "city": "Toronto",
    "province": "ON",
    "qualityScore": 3,
    "source": "overpass",
    "osmType": "node",
    "osmId": 6685670317,
    "lat": 43.658837,
    "lon": -79.3505364,
    "foundAt": "2026-04-07T00:10:55.848Z",
    "query": "dentist Toronto ON"
  },
  {
    "name": "Dr. Adam Chapnick | Cosmetic Dentist Toronto",
    "website": "https://www.chapnickdental.com",
    "email": "",
    "phone": "",
    "address": "3080 Yonge Street",
    "city": "Toronto",
    "province": "ON",
    "qualityScore": 2,
    "source": "overpass",
    "osmType": "node",
    "osmId": 7242393428,
    "lat": 43.7254681,
    "lon": -79.4030033,
    "foundAt": "2026-04-07T00:10:55.848Z",
    "query": "dentist Toronto ON"
  },
  {
    "name": "OrthoSmiles",
    "website": "https://laskiorthosmiles.com",
    "email": "",
    "phone": "+1 416-656-0995",
    "address": "691 St. Clair Avenue West",
    "city": "Toronto",
    "province": "ON",
    "qualityScore": 3,
    "source": "overpass",
    "osmType": "node",
    "osmId": 7580591509,
    "lat": 43.6814504,
    "lon": -79.4259892,
    "foundAt": "2026-04-07T00:10:55.848Z",
    "query": "dentist Toronto ON"
  },
  {
    "name": "SmileSquad Kids Dental",
    "website": "https://www.smilesquad.ca",
    "email": "",
    "phone": "+1 416-825-1818",
    "address": "1440 Bathurst Street",
    "city": "Toronto",
    "province": "ON",
    "qualityScore": 3,
    "source": "overpass",
    "osmType": "node",
    "osmId": 7580751039,
    "lat": 43.6823878,
    "lon": -79.4182496,
    "foundAt": "2026-04-07T00:10:55.848Z",
    "query": "dentist Toronto ON"
  },
  {
    "name": "Bathurst St. Clair Dental Studio",
    "website": "https://https",
    "email": "reception@bscdentalstudio.com",
    "phone": "+14166533441",
    "address": "1500 Bathurst Street",
    "city": "Toronto",
    "province": "ON",
    "qualityScore": 4,
    "source": "overpass",
    "osmType": "node",
    "osmId": 7580783332,
    "lat": 43.6840439,
    "lon": -79.4188846,
    "foundAt": "2026-04-07T00:10:55.848Z",
    "query": "dentist Toronto ON"
  },
  {
    "name": "Dr. Halyna Hrynash DDS Dentistry on the Avenue",
    "website": "https://www.drlisalindstrom.com",
    "email": "",
    "phone": "",
    "address": "315 Avenue Road",
    "city": "Toronto",
    "province": "ON",
    "qualityScore": 2,
    "source": "overpass",
    "osmType": "node",
    "osmId": 7659428554,
    "lat": 43.6802967,
    "lon": -79.3985075,
    "foundAt": "2026-04-07T00:10:55.848Z",
    "query": "dentist Toronto ON"
  },
  {
    "name": "Dawson Dental - Midtown",
    "website": "https://www.dawsondental.ca",
    "email": "",
    "phone": "+1 4169639440",
    "address": "1560 Yonge Street",
    "city": "Toronto",
    "province": "ON",
    "qualityScore": 3,
    "source": "overpass",
    "osmType": "node",
    "osmId": 7684888379,
    "lat": 43.6896289,
    "lon": -79.3949223,
    "foundAt": "2026-04-07T00:10:55.848Z",
    "query": "dentist Toronto ON"
  },
  {
    "name": "City Dental on Yonge",
    "website": "https://citydentalonyonge.com",
    "email": "",
    "phone": "+1 416-845-5500",
    "address": "",
    "city": "Toronto",
    "province": "ON",
    "qualityScore": 2,
    "source": "overpass",
    "osmType": "node",
    "osmId": 7685080812,
    "lat": 43.6596062,
    "lon": -79.3820947,
    "foundAt": "2026-04-07T00:10:55.848Z",
    "query": "dentist Toronto ON"
  },
  {
    "name": "Dentistry @ Equinox",
    "website": "https://dentistryatequinox.com",
    "email": "",
    "phone": "+1-416-438-2063",
    "address": "",
    "city": "Toronto",
    "province": "ON",
    "qualityScore": 2,
    "source": "overpass",
    "osmType": "node",
    "osmId": 7797292369,
    "lat": 43.7740831,
    "lon": -79.2572772,
    "foundAt": "2026-04-07T00:10:55.848Z",
    "query": "dentist Toronto ON"
  },
  {
    "name": "Opal Dental Care",
    "website": "https://www.opaldentalcare.ca",
    "email": "",
    "phone": "",
    "address": "1115 Dufferin Street",
    "city": "Toronto",
    "province": "ON",
    "qualityScore": 2,
    "source": "overpass",
    "osmType": "node",
    "osmId": 7881397567,
    "lat": 43.6628848,
    "lon": -79.4364469,
    "foundAt": "2026-04-07T00:10:55.848Z",
    "query": "dentist Toronto ON"
  },
  {
    "name": "Tooth Fairy Dental on Eglinton",
    "website": "https://toothfairydentaloneglinton.com",
    "email": "",
    "phone": "+1 4165469806",
    "address": "161 Eglinton Avenue East",
    "city": "Toronto",
    "province": "ON",
    "qualityScore": 3,
    "source": "overpass",
    "osmType": "node",
    "osmId": 8262560329,
    "lat": 43.7077537,
    "lon": -79.3925697,
    "foundAt": "2026-04-07T00:10:55.848Z",
    "query": "dentist Toronto ON"
  },
  {
    "name": "Dupont Dentistry",
    "website": "https://dupontdentistry.com",
    "email": "",
    "phone": "",
    "address": "196 Dupont Street",
    "city": "Toronto",
    "province": "ON",
    "qualityScore": 2,
    "source": "overpass",
    "osmType": "node",
    "osmId": 8518319525,
    "lat": 43.6755681,
    "lon": -79.4042589,
    "foundAt": "2026-04-07T00:10:55.848Z",
    "query": "dentist Toronto ON"
  },
  {
    "name": "Smile Solutions Orthodontists Drs. Eckler, Black & Leung",
    "website": "https://www.smilenow.com",
    "email": "info@smilenow.com",
    "phone": "+1 905-949-6688",
    "address": "55 City Centre Drive",
    "city": "Toronto",
    "province": "ON",
    "qualityScore": 4,
    "source": "overpass",
    "osmType": "node",
    "osmId": 8742811903,
    "lat": 43.5935624,
    "lon": -79.638076,
    "foundAt": "2026-04-07T00:10:55.848Z",
    "query": "dentist Toronto ON"
  },
  {
    "name": "Galloro Dentist",
    "website": "https://gallorodentalgroup.com",
    "email": "",
    "phone": "",
    "address": "1246 Yonge Street",
    "city": "Toronto",
    "province": "ON",
    "qualityScore": 2,
    "source": "overpass",
    "osmType": "node",
    "osmId": 8827381538,
    "lat": 43.6830074,
    "lon": -79.3922382,
    "foundAt": "2026-04-07T00:10:55.848Z",
    "query": "dentist Toronto ON"
  },
  {
    "name": "Eatonville Dental",
    "website": "https://eatonvilledental.com",
    "email": "",
    "phone": "",
    "address": "5359 Dundas Street West",
    "city": "Toronto",
    "province": "ON",
    "qualityScore": 2,
    "source": "overpass",
    "osmType": "node",
    "osmId": 8911435993,
    "lat": 43.6358372,
    "lon": -79.5397979,
    "foundAt": "2026-04-07T00:10:55.848Z",
    "query": "dentist Toronto ON"
  },
  {
    "name": "Sunny Dental",
    "website": "https://www.sunnydentalcare.ca",
    "email": "",
    "phone": "+1 4163713330",
    "address": "5425 Dundas Street West",
    "city": "Toronto",
    "province": "ON",
    "qualityScore": 3,
    "source": "overpass",
    "osmType": "node",
    "osmId": 9338960559,
    "lat": 43.6341792,
    "lon": -79.5415494,
    "foundAt": "2026-04-07T00:10:55.848Z",
    "query": "dentist Toronto ON"
  },
  {
    "name": "Dental Land Summerhill",
    "website": "https://dentallandsummerhill.ca",
    "email": "",
    "phone": "",
    "address": "1221 Yonge Street",
    "city": "Toronto",
    "province": "ON",
    "qualityScore": 2,
    "source": "overpass",
    "osmType": "node",
    "osmId": 9396512637,
    "lat": 43.683306,
    "lon": -79.391905,
    "foundAt": "2026-04-07T00:10:55.848Z",
    "query": "dentist Toronto ON"
  },
  {
    "name": "Aberfoyle Dental",
    "website": "https://www.aberfoyledental.ca",
    "email": "",
    "phone": "+1 416-233-1299",
    "address": "1243 Islington Avenue",
    "city": "Toronto",
    "province": "ON",
    "qualityScore": 3,
    "source": "overpass",
    "osmType": "node",
    "osmId": 9592156378,
    "lat": 43.645955,
    "lon": -79.5236602,
    "foundAt": "2026-04-07T00:10:55.848Z",
    "query": "dentist Toronto ON"
  },
  {
    "name": "Dr. Mark Rhody",
    "website": "https://www.etobicokedentist.com",
    "email": "",
    "phone": "+1-416-231-4281",
    "address": "",
    "city": "Toronto",
    "province": "ON",
    "qualityScore": 2,
    "source": "overpass",
    "osmType": "node",
    "osmId": 9627789104,
    "lat": 43.6453625,
    "lon": -79.5219141,
    "foundAt": "2026-04-07T00:10:55.848Z",
    "query": "dentist Toronto ON"
  },
  {
    "name": "Underhill Dental",
    "website": "https://underhilldental.com",
    "email": "info@underhilldental.com",
    "phone": "+1 416 447 9511",
    "address": "51A Underhill Drive",
    "city": "Toronto",
    "province": "ON",
    "qualityScore": 4,
    "source": "overpass",
    "osmType": "node",
    "osmId": 9708974766,
    "lat": 43.7450285,
    "lon": -79.3255619,
    "foundAt": "2026-04-07T00:10:55.848Z",
    "query": "dentist Toronto ON"
  },
  {
    "name": "Maxilla Dental",
    "website": "https://maxilladental.ca",
    "email": "",
    "phone": "+1 647-429-6000",
    "address": "951 Wilson Avenue",
    "city": "Toronto",
    "province": "ON",
    "qualityScore": 3,
    "source": "overpass",
    "osmType": "node",
    "osmId": 9710683140,
    "lat": 43.7281596,
    "lon": -79.4754088,
    "foundAt": "2026-04-07T00:10:55.848Z",
    "query": "dentist Toronto ON"
  },
  {
    "name": "Etobicoke Smiles Dental",
    "website": "https://etobicokesmilesdental.ca",
    "email": "",
    "phone": "+1-416-621-2222",
    "address": "577 Burnhamthorpe Road",
    "city": "Toronto",
    "province": "ON",
    "qualityScore": 3,
    "source": "overpass",
    "osmType": "node",
    "osmId": 9733756700,
    "lat": 43.6445387,
    "lon": -79.568768,
    "foundAt": "2026-04-07T00:10:55.848Z",
    "query": "dentist Toronto ON"
  },
  {
    "name": "Brandon Gate Dental Care",
    "website": "https://www.brandongatedental.com",
    "email": "info@brandongatedental.com",
    "phone": "+1-905-673-6565",
    "address": "4025 Brandon Gate Drive",
    "city": "Toronto",
    "province": "ON",
    "qualityScore": 4,
    "source": "overpass",
    "osmType": "node",
    "osmId": 9781254058,
    "lat": 43.7328921,
    "lon": -79.6347369,
    "foundAt": "2026-04-07T00:10:55.848Z",
    "query": "dentist Toronto ON"
  },
  {
    "name": "Dr. Kacicnik & Associates Dental Office",
    "website": "https://drkacicnikdental.com",
    "email": "",
    "phone": "+1 416-922-1161",
    "address": "600 Sherbourne Street",
    "city": "Toronto",
    "province": "ON",
    "qualityScore": 3,
    "source": "overpass",
    "osmType": "node",
    "osmId": 9825182122,
    "lat": 43.6717448,
    "lon": -79.3767891,
    "foundAt": "2026-04-07T00:10:55.848Z",
    "query": "dentist Toronto ON"
  },
  {
    "name": "Mississauga Smiles Dentistry",
    "website": "https://www.mississaugasmilesdentistry.com",
    "email": "",
    "phone": "+1 905-270-2003",
    "address": "",
    "city": "Toronto",
    "province": "ON",
    "qualityScore": 2,
    "source": "overpass",
    "osmType": "node",
    "osmId": 9946142672,
    "lat": 43.5914819,
    "lon": -79.6368314,
    "foundAt": "2026-04-07T00:10:55.848Z",
    "query": "dentist Toronto ON"
  },
  {
    "name": "Birchcliff Dental",
    "website": "https://birchcliffdental.ca",
    "email": "",
    "phone": "+1-416-519-2702",
    "address": "1340 Kingston Road",
    "city": "Toronto",
    "province": "ON",
    "qualityScore": 3,
    "source": "overpass",
    "osmType": "node",
    "osmId": 10131186813,
    "lat": 43.6854467,
    "lon": -79.2746276,
    "foundAt": "2026-04-07T00:10:55.848Z",
    "query": "dentist Toronto ON"
  },
  {
    "name": "Balsam Dental",
    "website": "https://www.balsamdental.com",
    "email": "",
    "phone": "+1-416-691-8555",
    "address": "2200 Queen Street East",
    "city": "Toronto",
    "province": "ON",
    "qualityScore": 3,
    "source": "overpass",
    "osmType": "node",
    "osmId": 10160002811,
    "lat": 43.6723758,
    "lon": -79.2896525,
    "foundAt": "2026-04-07T00:10:55.848Z",
    "query": "dentist Toronto ON"
  },
  {
    "name": "Van Horne Dental",
    "website": "https://www.vanhornedental.com",
    "email": "info@vanhornedental.com",
    "phone": "+1 416-499-7878",
    "address": "2804 Victoria Park Avenue",
    "city": "Toronto",
    "province": "ON",
    "qualityScore": 4,
    "source": "overpass",
    "osmType": "node",
    "osmId": 10888963489,
    "lat": 43.7883597,
    "lon": -79.3305567,
    "foundAt": "2026-04-07T00:10:55.848Z",
    "query": "dentist Toronto ON"
  },
  {
    "name": "Dentistry in the Beach",
    "website": "https://www.dentistryinthebeach.com",
    "email": "",
    "phone": "",
    "address": "330 Kingston Road",
    "city": "Toronto",
    "province": "ON",
    "qualityScore": 2,
    "source": "overpass",
    "osmType": "node",
    "osmId": 10975902250,
    "lat": 43.6749197,
    "lon": -79.307038,
    "foundAt": "2026-04-07T00:10:55.849Z",
    "query": "dentist Toronto ON"
  },
  {
    "name": "Dr. Arlene P. Dagys",
    "website": "https://www.drdagysorthodontics.com",
    "email": "",
    "phone": "+1 416-690-8525",
    "address": "340 Kingston Road",
    "city": "Toronto",
    "province": "ON",
    "qualityScore": 3,
    "source": "overpass",
    "osmType": "node",
    "osmId": 10975902251,
    "lat": 43.6751211,
    "lon": -79.3068122,
    "foundAt": "2026-04-07T00:10:55.849Z",
    "query": "dentist Toronto ON"
  },
  {
    "name": "Dentistry in the 6ix",
    "website": "https://www.dentistryinthe6ix.com",
    "email": "dr.bitaraf@live.com",
    "phone": "+1 416-691-1600",
    "address": "1781 Queen Street East",
    "city": "Toronto",
    "province": "ON",
    "qualityScore": 4,
    "source": "overpass",
    "osmType": "node",
    "osmId": 11038043948,
    "lat": 43.6679151,
    "lon": -79.3089681,
    "foundAt": "2026-04-07T00:10:55.849Z",
    "query": "dentist Toronto ON"
  },
  {
    "name": "Bond Street Dental",
    "website": "https://www.dentalimplantsclinic.ca",
    "email": "",
    "phone": "+1-416-585-2663",
    "address": "113 Bond Street",
    "city": "Toronto",
    "province": "ON",
    "qualityScore": 3,
    "source": "overpass",
    "osmType": "node",
    "osmId": 11215535802,
    "lat": 43.6571425,
    "lon": -79.3785034,
    "foundAt": "2026-04-07T00:10:55.849Z",
    "query": "dentist Toronto ON"
  },
  {
    "name": "Dr. Claire Benmergui, D.D.S. Cosmetic and Family Dentistry",
    "website": "https://www.northyorkdentistry.com",
    "email": "dr.clairebenmergui@rogers.com",
    "phone": "+1-416-226-2500",
    "address": "1575 Steeles Avenue East",
    "city": "Toronto",
    "province": "ON",
    "qualityScore": 4,
    "source": "overpass",
    "osmType": "node",
    "osmId": 11298404169,
    "lat": 43.8055063,
    "lon": -79.3839801,
    "foundAt": "2026-04-07T00:10:55.849Z",
    "query": "dentist Toronto ON"
  },
  {
    "name": "Toronto Sleep Dentistry",
    "website": "https://www.416sleepdentistry.ca",
    "email": "",
    "phone": "+1 4165355561",
    "address": "1584 Bloor Street West",
    "city": "Toronto",
    "province": "ON",
    "qualityScore": 3,
    "source": "overpass",
    "osmType": "node",
    "osmId": 11369858399,
    "lat": 43.6560421,
    "lon": -79.4545379,
    "foundAt": "2026-04-07T00:10:55.849Z",
    "query": "dentist Toronto ON"
  },
  {
    "name": "Kingsview Family Dental Clinic",
    "website": "https://kingsviewdentaltoronto.com",
    "email": "",
    "phone": "",
    "address": "339 King Street West",
    "city": "Toronto",
    "province": "ON",
    "qualityScore": 2,
    "source": "overpass",
    "osmType": "node",
    "osmId": 11429944156,
    "lat": 43.646071,
    "lon": -79.3915133,
    "foundAt": "2026-04-07T00:10:55.849Z",
    "query": "dentist Toronto ON"
  },
  {
    "name": "Bedford Park Dental",
    "website": "https://wwwmbedfordparkdental.com",
    "email": "",
    "phone": "+1-416-785-9399",
    "address": "1566 Avenue Road",
    "city": "Toronto",
    "province": "ON",
    "qualityScore": 3,
    "source": "overpass",
    "osmType": "node",
    "osmId": 11565396056,
    "lat": 43.7238092,
    "lon": -79.4164201,
    "foundAt": "2026-04-07T00:10:55.849Z",
    "query": "dentist Toronto ON"
  },
  {
    "name": "Dentistry for Everyone",
    "website": "https://dentistryforeveryone.ca",
    "email": "",
    "phone": "+1 4168141111",
    "address": "416 Dufferin Street",
    "city": "Toronto",
    "province": "ON",
    "qualityScore": 3,
    "source": "overpass",
    "osmType": "node",
    "osmId": 11736778715,
    "lat": 43.644104,
    "lon": -79.429593,
    "foundAt": "2026-04-07T00:10:55.849Z",
    "query": "dentist Toronto ON"
  },
  {
    "name": "Dent",
    "website": "https://dentleslieville.ca",
    "email": "",
    "phone": "",
    "address": "875 Queen Street East",
    "city": "Toronto",
    "province": "ON",
    "qualityScore": 2,
    "source": "overpass",
    "osmType": "node",
    "osmId": 11778365822,
    "lat": 43.6602279,
    "lon": -79.343153,
    "foundAt": "2026-04-07T00:10:55.849Z",
    "query": "dentist Toronto ON"
  },